%  GPST        ,GPS_Date, latitude(deg),longitude(deg), height(m),  Q, ns,  sdn(m),  sde(m),  sdu(m), sdne(m), sdeu(m), sdun(m),age(s), ratio
2148,324587.8,45.83505277,-110.9326804,2317.9215,1,5,0.0153,0.0127,0.0436,0.0054,0.0139,0.0099,-12.2,999.9
2148,324588,45.83505266,-110.9326804,2317.9136,1,5,0.0151,0.0125,0.043,0.0053,0.0137,0.0098,-12,999.9
2148,324588.2,45.83505253,-110.9326803,2317.9074,1,5,0.0149,0.0123,0.0424,0.0053,0.0135,0.0096,-11.8,999.9
2148,324588.4,45.83505239,-110.9326802,2317.9176,1,5,0.0147,0.0121,0.0418,0.0052,0.0133,0.0095,-11.6,999.9
2148,324588.6,45.83505225,-110.9326801,2317.919,1,5,0.0145,0.012,0.0411,0.0051,0.0131,0.0093,-11.4,999.9
2148,324588.8,45.83505212,-110.93268,2317.919,1,5,0.0143,0.0118,0.0405,0.0051,0.0129,0.0091,-11.2,999.9
2148,324589,45.83505198,-110.9326799,2317.9181,1,5,0.0141,0.0116,0.0398,0.005,0.0127,0.0089,-11,999.9
2148,324589.2,45.83505183,-110.9326798,2317.9066,1,5,0.0137,0.0114,0.0376,0.0047,0.012,0.0073,-10.8,999.9
2148,324589.4,45.83505164,-110.9326797,2317.8722,1,6,0.0124,0.0112,0.0309,0.0038,0.0106,-0.0076,-10.6,999.9
2148,324589.6,45.83505153,-110.9326797,2317.8724,1,6,0.0122,0.011,0.0304,0.0037,0.0105,-0.0074,-10.4,999.9
2148,324589.8,45.83505149,-110.9326796,2317.864,1,6,0.0121,0.0108,0.03,0.0037,0.0103,-0.0073,-10.2,999.9
2148,324590,45.83505143,-110.9326796,2317.8555,1,6,0.0119,0.0107,0.0296,0.0036,0.0102,-0.0071,-10,999.9
2148,324590.2,45.83505138,-110.9326795,2317.8484,1,6,0.0117,0.0105,0.0292,0.0036,0.01,-0.007,-9.8,999.9
2148,324590.4,45.83505132,-110.9326795,2317.8507,1,6,0.0115,0.0104,0.0288,0.0036,0.0099,-0.0068,-9.6,999.9
2148,324590.6,45.83505128,-110.9326795,2317.8504,1,6,0.0114,0.0102,0.0284,0.0035,0.0097,-0.0067,-9.4,999.9
2148,324590.8,45.83505126,-110.9326795,2317.8494,1,6,0.0112,0.01,0.028,0.0035,0.0096,-0.0066,-9.2,999.9
2148,324591,45.83505122,-110.9326795,2317.8451,1,6,0.011,0.0099,0.0276,0.0034,0.0094,-0.0064,-9,999.9
2148,324591.2,45.83505114,-110.9326795,2317.839,1,6,0.0108,0.0097,0.0268,0.0033,0.0092,-0.0065,-8.8,999.9
2148,324591.4,45.83505107,-110.9326794,2317.8322,1,6,0.0103,0.0095,0.0242,0.003,0.0086,-0.0084,-8.6,999.9
2148,324591.6,45.83505102,-110.9326793,2317.829,1,6,0.0101,0.0094,0.0238,0.003,0.0084,-0.0082,-8.4,999.9
2148,324591.8,45.83505103,-110.9326792,2317.8265,1,6,0.01,0.0092,0.0235,0.0029,0.0083,-0.008,-8.2,999.9
2148,324592,45.83505103,-110.9326792,2317.8304,1,6,0.0098,0.0091,0.0231,0.0029,0.0082,-0.0079,-8,999.9
2148,324592.2,45.83505101,-110.9326793,2317.8358,1,6,0.0097,0.0089,0.0228,0.0029,0.008,-0.0077,-7.8,999.9
2148,324592.4,45.83505098,-110.9326794,2317.8417,1,6,0.0095,0.0087,0.0224,0.0028,0.0079,-0.0075,-7.6,999.9
2148,324592.6,45.83505097,-110.9326795,2317.8404,1,6,0.0094,0.0086,0.0221,0.0028,0.0078,-0.0074,-7.4,999.9
2148,324592.8,45.83505098,-110.9326796,2317.8381,1,6,0.0092,0.0084,0.0218,0.0028,0.0076,-0.0072,-7.2,999.9
2148,324593,45.83505102,-110.9326797,2317.8308,1,6,0.0091,0.0083,0.0214,0.0028,0.0075,-0.0071,-7,999.9
2148,324593.2,45.835051,-110.9326799,2317.8239,1,6,0.0089,0.0081,0.0211,0.0027,0.0074,-0.0069,-6.8,999.9
2148,324593.4,45.83505098,-110.93268,2317.8188,1,6,0.0088,0.008,0.0208,0.0027,0.0073,-0.0067,-6.6,999.9
2148,324593.6,45.83505098,-110.93268,2317.8126,1,6,0.0086,0.0079,0.0205,0.0027,0.0071,-0.0066,-6.4,999.9
2148,324593.8,45.83505097,-110.9326801,2317.8113,1,6,0.0085,0.0077,0.0201,0.0026,0.007,-0.0064,-6.2,999.9
2148,324594,45.83505098,-110.9326802,2317.8206,1,6,0.0083,0.0076,0.0198,0.0026,0.0069,-0.0063,-6,999.9
2148,324594.2,45.83505101,-110.9326802,2317.8327,1,6,0.0082,0.0074,0.0195,0.0026,0.0067,-0.0061,-5.8,999.9
2148,324594.4,45.83505127,-110.9326806,2317.8074,1,6,0.008,0.0073,0.0192,0.0026,0.0066,-0.006,-5.6,999.9
2148,324594.6,45.835052,-110.9326814,2317.7123,1,6,0.0079,0.0071,0.0189,0.0025,0.0065,-0.0058,-5.4,999.9
2148,324594.8,45.83505334,-110.9326829,2317.531,1,6,0.0078,0.007,0.0186,0.0025,0.0064,-0.0057,-5.2,999.9
2148,324595,45.83505532,-110.932685,2317.2661,1,6,0.0076,0.0069,0.0183,0.0025,0.0063,-0.0055,-5,999.9
2148,324595.2,45.83505795,-110.9326879,2316.9134,1,6,0.0075,0.0068,0.018,0.0025,0.0061,-0.0054,-4.8,999.9
2148,324595.4,45.83506128,-110.9326914,2316.4815,1,6,0.0074,0.0066,0.0177,0.0024,0.006,-0.0053,-4.6,999.9
2148,324595.6,45.83506518,-110.9326954,2316.0067,1,6,0.0072,0.0065,0.0174,0.0024,0.0059,-0.0051,-4.4,999.9
2148,324595.8,45.83506946,-110.9326998,2315.5155,1,6,0.0071,0.0064,0.0171,0.0024,0.0058,-0.005,-4.2,999.9
2148,324596,45.83507387,-110.9327044,2315.0113,1,6,0.007,0.0063,0.0168,0.0024,0.0057,-0.0049,-4,999.9
2148,324596.2,45.8350782,-110.9327089,2314.5038,1,6,0.0069,0.0061,0.0166,0.0024,0.0056,-0.0048,-3.8,999.9
2148,324596.4,45.83508243,-110.9327133,2314.0076,1,6,0.0068,0.006,0.0163,0.0023,0.0055,-0.0047,-3.6,999.9
2148,324596.6,45.83508656,-110.9327174,2313.5104,1,6,0.0066,0.0059,0.016,0.0023,0.0054,-0.0046,-3.4,999.9
2148,324596.8,45.83509052,-110.9327214,2313.0063,1,6,0.0065,0.0058,0.0158,0.0023,0.0053,-0.0045,-3.2,999.9
2148,324597,45.8350944,-110.9327253,2312.5104,1,6,0.0064,0.0057,0.0155,0.0023,0.0052,-0.0044,-3,999.9
2148,324597.2,45.83509824,-110.9327291,2312.0171,1,6,0.0063,0.0056,0.0153,0.0022,0.0051,-0.0043,-2.8,999.9
2148,324597.4,45.83510199,-110.9327328,2311.5182,1,6,0.0062,0.0055,0.0151,0.0022,0.005,-0.0042,-2.6,999.9
2148,324597.6,45.83510571,-110.9327365,2311.0249,1,6,0.0062,0.0055,0.0149,0.0022,0.0049,-0.0041,-2.4,999.9
2148,324597.8,45.83510944,-110.93274,2310.5227,1,6,0.0061,0.0054,0.0147,0.0022,0.0049,-0.0041,-2.2,999.9
2148,324598,45.8351131,-110.9327436,2310.0238,1,6,0.006,0.0053,0.0145,0.0022,0.0048,-0.004,-2,999.9
2148,324598.2,45.83511675,-110.9327471,2309.5225,1,6,0.0059,0.0052,0.0143,0.0022,0.0047,-0.004,-1.8,999.9
2148,324598.4,45.83512041,-110.9327506,2309.02,1,6,0.0059,0.0052,0.0142,0.0022,0.0047,-0.0039,-1.6,999.9
2148,324598.6,45.83512407,-110.932754,2308.5277,1,6,0.0058,0.0051,0.014,0.0021,0.0046,-0.0039,-1.4,999.9
2148,324598.8,45.83512767,-110.9327574,2308.0274,1,6,0.0058,0.0051,0.0139,0.0021,0.0046,-0.0038,-1.2,999.9
2148,324599,45.83513132,-110.9327608,2307.5256,1,6,0.0057,0.005,0.0138,0.0021,0.0045,-0.0038,-1,999.9
2148,324599.2,45.83513484,-110.9327642,2307.0325,1,6,0.0057,0.005,0.0137,0.0021,0.0045,-0.0038,-0.8,999.9
2148,324599.4,45.83513844,-110.9327677,2306.5267,1,6,0.0057,0.005,0.0137,0.0021,0.0045,-0.0038,-0.6,999.9
2148,324599.6,45.83514202,-110.9327712,2306.028,1,6,0.0056,0.005,0.0137,0.0021,0.0045,-0.0038,-0.4,999.9
2148,324599.8,45.83514563,-110.9327748,2305.5318,1,6,0.0057,0.005,0.0139,0.0021,0.0046,-0.0039,-0.2,999.9
2148,324600,45.83514927,-110.9327783,2305.0306,1,6,0.0058,0.0051,0.0143,0.0021,0.0047,-0.004,0,999.9
2148,324600.2,45.83515295,-110.932782,2304.539,1,6,0.0284,0.0271,0.0631,0.0068,0.0235,-0.0263,-29.8,999.9
2148,324600.4,45.8351566,-110.9327856,2304.0506,1,6,0.0282,0.027,0.0627,0.0068,0.0233,-0.0261,-29.6,999.9
2148,324600.6,45.83516024,-110.9327893,2303.562,1,6,0.028,0.0268,0.0624,0.0068,0.0232,-0.0259,-29.4,999.9
2148,324600.8,45.83516389,-110.932793,2303.0631,1,6,0.0279,0.0266,0.062,0.0067,0.023,-0.0258,-29.2,999.9
2148,324601,45.83516757,-110.9327967,2302.5744,1,6,0.0277,0.0265,0.0616,0.0067,0.0229,-0.0256,-29,999.9
2148,324601.2,45.83517128,-110.9328003,2302.0966,1,6,0.0275,0.0263,0.0613,0.0066,0.0228,-0.0255,-28.8,999.9
2148,324601.4,45.83517495,-110.9328039,2301.6165,1,6,0.0273,0.0261,0.0609,0.0066,0.0226,-0.0253,-28.6,999.9
2148,324601.6,45.83517858,-110.9328075,2301.1395,1,6,0.0272,0.026,0.0605,0.0065,0.0225,-0.0251,-28.4,999.9
2148,324601.8,45.8351822,-110.932811,2300.6404,1,6,0.027,0.0258,0.0601,0.0065,0.0223,-0.025,-28.2,999.9
2148,324602,45.83518589,-110.9328146,2300.1343,1,6,0.0268,0.0257,0.0598,0.0065,0.0222,-0.0248,-28,999.9
2148,324602.2,45.83518966,-110.9328182,2299.6256,1,6,0.0267,0.0255,0.0594,0.0064,0.0221,-0.0246,-27.8,999.9
2148,324602.4,45.8351934,-110.9328217,2299.134,1,6,0.0265,0.0253,0.059,0.0064,0.0219,-0.0245,-27.6,999.9
2148,324602.6,45.83519677,-110.932825,2298.6907,1,6,0.0263,0.0252,0.0587,0.0063,0.0218,-0.0243,-27.4,999.9
2148,324602.8,45.83519953,-110.9328276,2298.3196,1,6,0.0261,0.025,0.0583,0.0063,0.0217,-0.0242,-27.2,999.9
2148,324603,45.83520146,-110.9328293,2298.0364,1,6,0.026,0.0248,0.0579,0.0063,0.0215,-0.024,-27,999.9
2148,324603.2,45.83520257,-110.9328301,2297.8439,1,6,0.0258,0.0247,0.0576,0.0062,0.0214,-0.0238,-26.8,999.9
2148,324603.4,45.83520299,-110.9328302,2297.7541,1,6,0.0256,0.0245,0.0572,0.0062,0.0212,-0.0237,-26.6,999.9
2148,324603.6,45.83520302,-110.9328299,2297.7722,1,6,0.0255,0.0243,0.0568,0.0061,0.0211,-0.0235,-26.4,999.9
2148,324603.8,45.83520293,-110.9328295,2297.907,1,6,0.0253,0.0242,0.0564,0.0061,0.021,-0.0233,-26.2,999.9
2148,324604,45.83520299,-110.9328295,2298.1693,1,6,0.0251,0.024,0.0561,0.0061,0.0208,-0.0232,-26,999.9
2148,324604.2,45.83520342,-110.9328298,2298.56,1,6,0.0249,0.0238,0.0557,0.006,0.0207,-0.023,-25.8,999.9
2148,324604.4,45.83520423,-110.9328305,2299.0671,1,6,0.0248,0.0237,0.0553,0.006,0.0205,-0.0228,-25.6,999.9
2148,324604.6,45.83520535,-110.9328314,2299.6904,1,6,0.0246,0.0235,0.055,0.0059,0.0204,-0.0227,-25.4,999.9
2148,324604.8,45.83520653,-110.9328325,2300.3854,1,6,0.0244,0.0233,0.0546,0.0059,0.0203,-0.0225,-25.2,999.9
2148,324605,45.83520768,-110.9328337,2301.0982,1,6,0.0243,0.0232,0.0542,0.0059,0.0201,-0.0224,-25,999.9
2148,324605.2,45.83520877,-110.932835,2301.8231,1,6,0.0241,0.023,0.0538,0.0058,0.02,-0.0222,-24.8,999.9
2148,324605.4,45.83520982,-110.9328362,2302.5305,1,6,0.0239,0.0228,0.0535,0.0058,0.0198,-0.022,-24.6,999.9
2148,324605.6,45.8352109,-110.9328373,2303.2329,1,6,0.0237,0.0227,0.0531,0.0057,0.0197,-0.0219,-24.4,999.9
2148,324605.8,45.83521197,-110.9328383,2303.9399,1,6,0.0236,0.0225,0.0527,0.0057,0.0196,-0.0217,-24.2,999.9
2148,324606,45.83521303,-110.9328392,2304.6356,1,6,0.0234,0.0223,0.0524,0.0057,0.0194,-0.0215,-24,999.9
2148,324606.2,45.83521407,-110.9328401,2305.3204,1,6,0.0232,0.0222,0.052,0.0056,0.0193,-0.0214,-23.8,999.9
2148,324606.4,45.83521505,-110.932841,2306.0149,1,6,0.0231,0.022,0.0516,0.0056,0.0191,-0.0212,-23.6,999.9
2148,324606.6,45.835216,-110.9328419,2306.7338,1,6,0.0229,0.0218,0.0512,0.0055,0.019,-0.021,-23.4,999.9
2148,324606.8,45.83521694,-110.9328429,2307.4624,1,6,0.0227,0.0217,0.0509,0.0055,0.0189,-0.0209,-23.2,999.9
2148,324607,45.83521788,-110.9328441,2308.1833,1,6,0.0225,0.0215,0.0505,0.0055,0.0187,-0.0207,-23,999.9
2148,324607.2,45.83521879,-110.9328453,2308.8241,1,6,0.0224,0.0213,0.0501,0.0054,0.0186,-0.0205,-22.8,999.9
2148,324607.4,45.83521956,-110.9328463,2309.3597,1,6,0.0222,0.0212,0.0498,0.0054,0.0184,-0.0204,-22.6,999.9
2148,324607.6,45.83522014,-110.9328471,2309.7822,1,6,0.022,0.021,0.0494,0.0053,0.0183,-0.0202,-22.4,999.9
2148,324607.8,45.83522049,-110.9328477,2310.0808,1,6,0.0218,0.0208,0.049,0.0053,0.0182,-0.02,-22.2,999.9
2148,324608,45.83522068,-110.9328482,2310.2491,1,6,0.0217,0.0207,0.0486,0.0053,0.018,-0.0199,-22,999.9
2148,324608.2,45.83522076,-110.9328489,2310.2913,1,6,0.0215,0.0205,0.0483,0.0052,0.0179,-0.0197,-21.8,999.9
2148,324608.4,45.83522091,-110.9328502,2310.2148,1,6,0.0213,0.0203,0.048,0.0052,0.0178,-0.0195,-21.6,999.9
2148,324608.6,45.8352212,-110.9328523,2310.0413,1,6,0.0212,0.0202,0.0476,0.0051,0.0176,-0.0194,-21.4,999.9
2148,324608.8,45.83522178,-110.9328557,2309.7904,1,6,0.021,0.02,0.0472,0.0051,0.0175,-0.0192,-21.2,999.9
2148,324609,45.83522277,-110.9328604,2309.4492,1,6,0.0209,0.0199,0.0475,0.0051,0.0176,-0.0188,-21,999.9
2148,324609.2,45.83522416,-110.9328665,2309.0422,1,6,0.0215,0.0197,0.0518,0.0058,0.0183,-0.015,-20.8,999.9
2148,324609.4,45.83522585,-110.9328737,2308.5934,1,6,0.0213,0.0196,0.0514,0.0058,0.0181,-0.0149,-20.6,999.9
2148,324609.6,45.8352277,-110.9328815,2308.1236,1,6,0.0211,0.0194,0.0508,0.0058,0.0179,-0.0147,-20.4,999.9
2148,324609.8,45.83522965,-110.9328894,2307.6483,1,6,0.0208,0.0192,0.0494,0.0055,0.0175,-0.0152,-20.2,999.9
2148,324610,45.83523154,-110.9328972,2307.1734,1,6,0.0199,0.019,0.0449,0.0049,0.0166,-0.0182,-20,999.9
2148,324610.2,45.83523343,-110.9329047,2306.7071,1,6,0.0198,0.0188,0.0445,0.0048,0.0165,-0.018,-19.8,999.9
2148,324610.4,45.83523529,-110.9329119,2306.2398,1,6,0.0196,0.0187,0.0442,0.0048,0.0163,-0.0179,-19.6,999.9
2148,324610.6,45.83523713,-110.9329188,2305.7692,1,6,0.0194,0.0185,0.0438,0.0048,0.0162,-0.0177,-19.4,999.9
2148,324610.8,45.835239,-110.9329255,2305.288,1,6,0.0193,0.0183,0.0434,0.0047,0.0161,-0.0175,-19.2,999.9
2148,324611,45.83524096,-110.932932,2304.8144,1,6,0.0191,0.0182,0.0431,0.0047,0.0159,-0.0173,-19,999.9
2148,324611.2,45.83524303,-110.9329384,2304.3509,1,6,0.0189,0.018,0.0427,0.0046,0.0158,-0.0172,-18.8,999.9
2148,324611.4,45.83524512,-110.9329445,2303.892,1,6,0.0187,0.0178,0.0423,0.0046,0.0156,-0.017,-18.6,999.9
2148,324611.6,45.83524729,-110.9329505,2303.4298,1,6,0.0186,0.0177,0.0419,0.0046,0.0155,-0.0168,-18.4,999.9
2148,324611.8,45.83524942,-110.9329563,2302.9695,1,6,0.0184,0.0175,0.0416,0.0045,0.0153,-0.0167,-18.2,999.9
2148,324612,45.83525157,-110.9329621,2302.5136,1,6,0.0182,0.0173,0.0412,0.0045,0.0152,-0.0165,-18,999.9
2148,324612.2,45.83525367,-110.9329679,2302.0547,1,6,0.018,0.0171,0.0408,0.0045,0.0151,-0.0163,-17.8,999.9
2148,324612.4,45.83525571,-110.9329737,2301.6053,1,6,0.0179,0.017,0.0404,0.0044,0.0149,-0.0162,-17.6,999.9
2148,324612.6,45.83525774,-110.9329795,2301.1478,1,6,0.0177,0.0168,0.0401,0.0044,0.0148,-0.016,-17.4,999.9
2148,324612.8,45.83525972,-110.9329854,2300.6932,1,6,0.0175,0.0166,0.0397,0.0043,0.0146,-0.0158,-17.2,999.9
2148,324613,45.83526168,-110.9329915,2300.2418,1,6,0.0174,0.0165,0.0393,0.0043,0.0145,-0.0156,-17,999.9
2148,324613.2,45.83526367,-110.9329975,2299.7894,1,6,0.0172,0.0163,0.039,0.0043,0.0144,-0.0155,-16.8,999.9
2148,324613.4,45.83526565,-110.9330036,2299.3355,1,6,0.017,0.0161,0.0386,0.0042,0.0142,-0.0153,-16.6,999.9
2148,324613.6,45.83526763,-110.9330098,2298.8888,1,6,0.0168,0.016,0.0382,0.0042,0.0141,-0.0151,-16.4,999.9
2148,324613.8,45.8352696,-110.9330159,2298.437,1,6,0.0167,0.0158,0.0379,0.0042,0.0139,-0.015,-16.2,999.9
2148,324614,45.83527161,-110.9330221,2297.9801,1,6,0.0165,0.0156,0.0375,0.0041,0.0138,-0.0148,-16,999.9
2148,324614.2,45.83527361,-110.9330284,2297.5262,1,6,0.0163,0.0155,0.0371,0.0041,0.0136,-0.0146,-15.8,999.9
2148,324614.4,45.83527565,-110.9330346,2297.0826,1,6,0.0162,0.0153,0.0367,0.0041,0.0135,-0.0144,-15.6,999.9
2148,324614.6,45.83527766,-110.9330409,2296.6389,1,6,0.016,0.0151,0.0364,0.004,0.0134,-0.0143,-15.4,999.9
2148,324614.8,45.83527968,-110.9330472,2296.1876,1,6,0.0158,0.015,0.036,0.004,0.0132,-0.0141,-15.2,999.9
2148,324615,45.83528169,-110.9330537,2295.7406,1,6,0.0156,0.0148,0.0356,0.0039,0.0131,-0.0139,-15,999.9
2148,324615.2,45.8352837,-110.9330602,2295.3068,1,6,0.0155,0.0146,0.0353,0.0039,0.0129,-0.0138,-14.8,999.9
2148,324615.4,45.8352857,-110.9330668,2294.864,1,6,0.0153,0.0145,0.0349,0.0039,0.0128,-0.0136,-14.6,999.9
2148,324615.6,45.83528771,-110.9330732,2294.4256,1,6,0.0151,0.0143,0.0345,0.0038,0.0127,-0.0134,-14.4,999.9
2148,324615.8,45.83528975,-110.9330797,2293.9767,1,6,0.015,0.0141,0.0342,0.0038,0.0125,-0.0132,-14.2,999.9
2148,324616,45.83529182,-110.9330862,2293.5413,1,6,0.0148,0.014,0.0338,0.0038,0.0124,-0.0131,-14,999.9
2148,324616.2,45.83529378,-110.9330928,2293.1073,1,6,0.0146,0.0138,0.0334,0.0037,0.0122,-0.0129,-13.8,999.9
2148,324616.4,45.83529572,-110.9330993,2292.6709,1,6,0.0144,0.0136,0.0331,0.0037,0.0121,-0.0127,-13.6,999.9
2148,324616.6,45.83529764,-110.9331059,2292.2312,1,6,0.0143,0.0135,0.0327,0.0037,0.0119,-0.0125,-13.4,999.9
2148,324616.8,45.83529953,-110.9331125,2291.7815,1,6,0.0141,0.0133,0.0323,0.0036,0.0118,-0.0124,-13.2,999.9
2148,324617,45.8353015,-110.933119,2291.336,1,6,0.0139,0.0131,0.032,0.0036,0.0117,-0.0122,-13,999.9
2148,324617.2,45.83530342,-110.9331255,2290.8921,1,6,0.0138,0.013,0.0316,0.0036,0.0115,-0.012,-12.8,999.9
2148,324617.4,45.83530533,-110.9331319,2290.4435,1,6,0.0136,0.0128,0.0312,0.0035,0.0114,-0.0118,-12.6,999.9
2148,324617.6,45.83530732,-110.9331383,2289.9982,1,6,0.0134,0.0126,0.0309,0.0035,0.0112,-0.0117,-12.4,999.9
2148,324617.8,45.83530926,-110.9331446,2289.5507,1,6,0.0133,0.0125,0.0305,0.0035,0.0111,-0.0115,-12.2,999.9
2148,324618,45.83531122,-110.933151,2289.0997,1,6,0.0131,0.0123,0.0302,0.0034,0.011,-0.0113,-12,999.9
2148,324618.2,45.83531316,-110.9331574,2288.6521,1,6,0.0129,0.0121,0.0298,0.0034,0.0108,-0.0112,-11.8,999.9
2148,324618.4,45.83531503,-110.9331639,2288.2021,1,6,0.0128,0.012,0.0294,0.0034,0.0107,-0.011,-11.6,999.9
2148,324618.6,45.83531685,-110.9331705,2287.7652,1,6,0.0126,0.0118,0.0291,0.0033,0.0105,-0.0108,-11.4,999.9
2148,324618.8,45.83531872,-110.9331769,2287.3151,1,6,0.0124,0.0116,0.0287,0.0033,0.0104,-0.0106,-11.2,999.9
2148,324619,45.8353206,-110.9331835,2286.8748,1,6,0.0123,0.0115,0.0284,0.0033,0.0103,-0.0105,-11,999.9
2148,324619.2,45.83532246,-110.9331899,2286.4389,1,6,0.0121,0.0113,0.028,0.0032,0.0101,-0.0103,-10.8,999.9
2148,324619.4,45.83532433,-110.9331963,2285.989,1,6,0.0119,0.0112,0.0276,0.0032,0.01,-0.0101,-10.6,999.9
2148,324619.6,45.83532622,-110.9332026,2285.5493,1,6,0.0118,0.011,0.0273,0.0032,0.0098,-0.0099,-10.4,999.9
2148,324619.8,45.83532809,-110.9332089,2285.1086,1,6,0.0116,0.0108,0.0269,0.0032,0.0097,-0.0098,-10.2,999.9
2148,324620,45.83532999,-110.9332153,2284.6604,1,6,0.0114,0.0107,0.0266,0.0031,0.0096,-0.0096,-10,999.9
2148,324620.2,45.83533187,-110.9332216,2284.2124,1,6,0.0113,0.0105,0.0262,0.0031,0.0094,-0.0094,-9.8,999.9
2148,324620.4,45.83533374,-110.9332279,2283.7631,1,6,0.0111,0.0103,0.0259,0.0031,0.0093,-0.0092,-9.6,999.9
2148,324620.6,45.83533566,-110.9332342,2283.3155,1,6,0.0109,0.0102,0.0255,0.003,0.0092,-0.0091,-9.4,999.9
2148,324620.8,45.83533751,-110.9332406,2282.869,1,6,0.0108,0.01,0.0252,0.003,0.009,-0.0089,-9.2,999.9
2148,324621,45.83533946,-110.933247,2282.4141,1,6,0.0106,0.0099,0.0248,0.003,0.0089,-0.0087,-9,999.9
2148,324621.2,45.83534141,-110.9332535,2281.9798,1,6,0.0105,0.0097,0.0245,0.0029,0.0087,-0.0086,-8.8,999.9
2148,324621.4,45.83534334,-110.93326,2281.5337,1,6,0.0103,0.0095,0.0241,0.0029,0.0086,-0.0084,-8.6,999.9
2148,324621.6,45.83534517,-110.9332664,2281.0918,1,6,0.0101,0.0094,0.0238,0.0029,0.0085,-0.0082,-8.4,999.9
2148,324621.8,45.83534699,-110.9332728,2280.6443,1,6,0.01,0.0092,0.0235,0.0029,0.0083,-0.0081,-8.2,999.9
2148,324622,45.83534874,-110.9332793,2280.1953,1,6,0.0098,0.0091,0.0231,0.0028,0.0082,-0.0079,-8,999.9
2148,324622.2,45.83535054,-110.9332858,2279.7572,1,6,0.0097,0.0089,0.0228,0.0028,0.0081,-0.0077,-7.8,999.9
2148,324622.4,45.83535238,-110.9332923,2279.304,1,6,0.0095,0.0088,0.0224,0.0028,0.0079,-0.0076,-7.6,999.9
2148,324622.6,45.83535416,-110.9332987,2278.8531,1,6,0.0094,0.0086,0.0221,0.0027,0.0078,-0.0074,-7.4,999.9
2148,324622.8,45.83535597,-110.9333053,2278.4055,1,6,0.0092,0.0085,0.0218,0.0027,0.0077,-0.0072,-7.2,999.9
2148,324623,45.83535784,-110.9333119,2277.9632,1,6,0.009,0.0083,0.0214,0.0027,0.0075,-0.0071,-7,999.9
2148,324623.2,45.8353597,-110.9333186,2277.5197,1,6,0.0089,0.0082,0.0211,0.0027,0.0074,-0.0069,-6.8,999.9
2148,324623.4,45.83536167,-110.933325,2277.079,1,6,0.0087,0.008,0.0208,0.0026,0.0073,-0.0067,-6.6,999.9
2148,324623.6,45.83536363,-110.9333315,2276.6351,1,6,0.0086,0.0079,0.0205,0.0026,0.0072,-0.0066,-6.4,999.9
2148,324623.8,45.8353656,-110.9333379,2276.1745,1,6,0.0085,0.0077,0.0201,0.0026,0.007,-0.0064,-6.2,999.9
2148,324624,45.8353675,-110.9333436,2275.7679,1,6,0.0083,0.0076,0.0198,0.0026,0.0069,-0.0063,-6,999.9
2148,324624.2,45.83536907,-110.9333482,2275.4504,1,6,0.0082,0.0074,0.0195,0.0025,0.0068,-0.0061,-5.8,999.9
2148,324624.4,45.83537032,-110.9333513,2275.2085,1,6,0.008,0.0073,0.0192,0.0025,0.0067,-0.006,-5.6,999.9
2148,324624.6,45.83537114,-110.9333529,2275.0541,1,6,0.0079,0.0072,0.0189,0.0025,0.0065,-0.0058,-5.4,999.9
2148,324624.8,45.83537157,-110.9333531,2274.9627,1,6,0.0077,0.007,0.0186,0.0025,0.0064,-0.0057,-5.2,999.9
2148,324625,45.83537144,-110.9333522,2274.9369,1,6,0.0076,0.0069,0.0183,0.0024,0.0063,-0.0056,-5,999.9
2148,324625.2,45.83537062,-110.9333502,2274.9824,1,6,0.0075,0.0068,0.018,0.0024,0.0062,-0.0054,-4.8,999.9
2148,324625.4,45.83536897,-110.9333473,2275.0409,1,6,0.0073,0.0066,0.0177,0.0024,0.0061,-0.0053,-4.6,999.9
2148,324625.6,45.83536643,-110.9333435,2275.1315,1,6,0.0072,0.0065,0.0174,0.0024,0.0059,-0.0052,-4.4,999.9
2148,324625.8,45.83536284,-110.9333388,2275.2574,1,6,0.0071,0.0064,0.0171,0.0024,0.0058,-0.005,-4.2,999.9
2148,324626,45.83535825,-110.9333333,2275.4106,1,6,0.007,0.0063,0.0168,0.0023,0.0057,-0.0049,-4,999.9
2148,324626.2,45.83535296,-110.9333273,2275.5795,1,6,0.0069,0.0062,0.0166,0.0023,0.0056,-0.0048,-3.8,999.9
2148,324626.4,45.83534739,-110.9333212,2275.7602,1,6,0.0067,0.006,0.0163,0.0023,0.0055,-0.0047,-3.6,999.9
2148,324626.6,45.8353418,-110.9333154,2275.9287,1,6,0.0066,0.0059,0.016,0.0023,0.0054,-0.0046,-3.4,999.9
2148,324626.8,45.83533621,-110.9333099,2276.0951,1,6,0.0065,0.0058,0.0158,0.0023,0.0053,-0.0045,-3.2,999.9
2148,324627,45.83533073,-110.9333046,2276.2699,1,6,0.0064,0.0057,0.0155,0.0022,0.0052,-0.0044,-3,999.9
2148,324627.2,45.8353253,-110.9332997,2276.4346,1,6,0.0063,0.0056,0.0153,0.0022,0.0051,-0.0043,-2.8,999.9
2148,324627.4,45.83532001,-110.9332949,2276.5921,1,6,0.0062,0.0056,0.0151,0.0022,0.005,-0.0042,-2.6,999.9
2148,324627.6,45.83531477,-110.9332904,2276.7532,1,6,0.0061,0.0055,0.0149,0.0022,0.0049,-0.0042,-2.4,999.9
2148,324627.8,45.83530956,-110.9332859,2276.9127,1,6,0.0061,0.0054,0.0147,0.0022,0.0049,-0.0041,-2.2,999.9
2148,324628,45.83530436,-110.9332816,2277.0644,1,6,0.006,0.0053,0.0145,0.0022,0.0048,-0.004,-2,999.9
2148,324628.2,45.83529917,-110.9332772,2277.2258,1,6,0.0059,0.0052,0.0143,0.0021,0.0047,-0.004,-1.8,999.9
2148,324628.4,45.83529403,-110.9332728,2277.3992,1,6,0.0059,0.0052,0.0142,0.0021,0.0047,-0.0039,-1.6,999.9
2148,324628.6,45.83528897,-110.9332684,2277.5656,1,6,0.0058,0.0051,0.014,0.0021,0.0046,-0.0039,-1.4,999.9
2148,324628.8,45.83528392,-110.9332637,2277.7388,1,6,0.0057,0.0051,0.0139,0.0021,0.0046,-0.0038,-1.2,999.9
2148,324629,45.83527878,-110.9332591,2277.9151,1,6,0.0057,0.005,0.0138,0.0021,0.0045,-0.0038,-1,999.9
2148,324629.2,45.83527371,-110.9332544,2278.0741,1,6,0.0057,0.005,0.0137,0.0021,0.0045,-0.0038,-0.8,999.9
2148,324629.4,45.83526857,-110.9332497,2278.2468,1,6,0.0057,0.005,0.0137,0.0021,0.0045,-0.0038,-0.6,999.9
2148,324629.6,45.83526353,-110.9332449,2278.4142,1,6,0.0056,0.005,0.0137,0.0021,0.0045,-0.0038,-0.4,999.9
2148,324629.8,45.83525847,-110.93324,2278.5883,1,6,0.0057,0.005,0.0139,0.0021,0.0046,-0.0039,-0.2,999.9
2148,324630,45.83525337,-110.9332352,2278.755,1,6,0.0058,0.0051,0.0143,0.0021,0.0047,-0.004,0,999.9
2148,324630.2,45.83524845,-110.9332307,2278.8976,1,6,0.0283,0.0272,0.0629,0.0065,0.0235,-0.0263,-29.8,999.9
2148,324630.4,45.83524338,-110.9332258,2279.0652,1,6,0.0281,0.0271,0.0626,0.0065,0.0234,-0.0262,-29.6,999.9
2148,324630.6,45.83523835,-110.9332209,2279.2284,1,6,0.028,0.0269,0.0622,0.0064,0.0233,-0.026,-29.4,999.9
2148,324630.8,45.8352333,-110.933216,2279.3982,1,6,0.0278,0.0267,0.0618,0.0064,0.0231,-0.0258,-29.2,999.9
2148,324631,45.83522823,-110.933211,2279.5603,1,6,0.0276,0.0266,0.0615,0.0064,0.023,-0.0257,-29,999.9
2148,324631.2,45.83522321,-110.9332059,2279.7243,1,6,0.0275,0.0264,0.0611,0.0063,0.0229,-0.0255,-28.8,999.9
2148,324631.4,45.83521816,-110.9332009,2279.885,1,6,0.0273,0.0262,0.0607,0.0063,0.0227,-0.0253,-28.6,999.9
2148,324631.6,45.83521314,-110.9331959,2280.0491,1,6,0.0271,0.0261,0.0604,0.0062,0.0226,-0.0252,-28.4,999.9
2148,324631.8,45.83520813,-110.9331909,2280.2033,1,6,0.027,0.0259,0.06,0.0062,0.0224,-0.025,-28.2,999.9
2148,324632,45.83520308,-110.9331859,2280.3691,1,6,0.0268,0.0257,0.0596,0.0062,0.0223,-0.0249,-28,999.9
2148,324632.2,45.83519802,-110.9331809,2280.521,1,6,0.0266,0.0256,0.0593,0.0061,0.0222,-0.0247,-27.8,999.9
2148,324632.4,45.83519299,-110.9331757,2280.6781,1,6,0.0264,0.0254,0.0589,0.0061,0.022,-0.0245,-27.6,999.9
2148,324632.6,45.83518798,-110.9331705,2280.8352,1,6,0.0263,0.0252,0.0585,0.006,0.0219,-0.0244,-27.4,999.9
2148,324632.8,45.83518299,-110.9331653,2280.9882,1,6,0.0261,0.0251,0.0581,0.006,0.0217,-0.0242,-27.2,999.9
2148,324633,45.83517796,-110.9331601,2281.1413,1,6,0.0259,0.0249,0.0578,0.006,0.0216,-0.024,-27,999.9
2148,324633.2,45.83517288,-110.9331549,2281.3013,1,6,0.0258,0.0247,0.0574,0.0059,0.0215,-0.0239,-26.8,999.9
2148,324633.4,45.8351678,-110.9331497,2281.4551,1,6,0.0256,0.0246,0.057,0.0059,0.0213,-0.0237,-26.6,999.9
2148,324633.6,45.83516275,-110.9331445,2281.6178,1,6,0.0254,0.0244,0.0567,0.0059,0.0212,-0.0236,-26.4,999.9
2148,324633.8,45.83515774,-110.9331394,2281.7785,1,6,0.0252,0.0242,0.0563,0.0058,0.021,-0.0234,-26.2,999.9
2148,324634,45.8351527,-110.9331343,2281.9388,1,6,0.0251,0.0241,0.0559,0.0058,0.0209,-0.0232,-26,999.9
2148,324634.2,45.83514765,-110.9331292,2282.1071,1,6,0.0249,0.0239,0.0556,0.0057,0.0208,-0.0231,-25.8,999.9
2148,324634.4,45.83514266,-110.9331242,2282.2691,1,6,0.0247,0.0237,0.0552,0.0057,0.0206,-0.0229,-25.6,999.9
2148,324634.6,45.83513765,-110.9331191,2282.4309,1,6,0.0246,0.0236,0.0548,0.0057,0.0205,-0.0227,-25.4,999.9
2148,324634.8,45.83513264,-110.9331141,2282.5895,1,6,0.0244,0.0234,0.0545,0.0056,0.0203,-0.0226,-25.2,999.9
2148,324635,45.83512758,-110.9331092,2282.7343,1,6,0.0242,0.0232,0.0541,0.0056,0.0202,-0.0224,-25,999.9
2148,324635.2,45.83512249,-110.9331043,2282.8849,1,6,0.024,0.0231,0.0537,0.0055,0.0201,-0.0222,-24.8,999.9
2148,324635.4,45.8351174,-110.9330993,2283.0424,1,6,0.0239,0.0229,0.0533,0.0055,0.0199,-0.0221,-24.6,999.9
2148,324635.6,45.83511235,-110.9330944,2283.1932,1,6,0.0237,0.0227,0.053,0.0055,0.0198,-0.0219,-24.4,999.9
2148,324635.8,45.8351073,-110.9330893,2283.3413,1,6,0.0235,0.0226,0.0526,0.0054,0.0196,-0.0217,-24.2,999.9
2148,324636,45.8351023,-110.9330842,2283.4953,1,6,0.0234,0.0224,0.0522,0.0054,0.0195,-0.0216,-24,999.9
2148,324636.2,45.83509735,-110.9330789,2283.6442,1,6,0.0232,0.0222,0.0519,0.0054,0.0194,-0.0214,-23.8,999.9
2148,324636.4,45.83509236,-110.9330738,2283.7944,1,6,0.023,0.0221,0.0515,0.0053,0.0192,-0.0212,-23.6,999.9
2148,324636.6,45.83508741,-110.9330686,2283.9462,1,6,0.0228,0.0219,0.0511,0.0053,0.0191,-0.0211,-23.4,999.9
2148,324636.8,45.83508236,-110.9330634,2284.1027,1,6,0.0227,0.0217,0.0508,0.0052,0.0189,-0.0209,-23.2,999.9
2148,324637,45.83507735,-110.9330582,2284.2568,1,6,0.0225,0.0216,0.0504,0.0052,0.0188,-0.0207,-23,999.9
2148,324637.2,45.83507234,-110.9330529,2284.4124,1,6,0.0223,0.0214,0.05,0.0052,0.0187,-0.0206,-22.8,999.9
2148,324637.4,45.83506736,-110.9330476,2284.5652,1,6,0.0222,0.0212,0.0496,0.0051,0.0185,-0.0204,-22.6,999.9
2148,324637.6,45.83506241,-110.9330423,2284.7212,1,6,0.022,0.0211,0.0493,0.0051,0.0184,-0.0202,-22.4,999.9
2148,324637.8,45.83505739,-110.933037,2284.8705,1,6,0.0218,0.0209,0.0489,0.0051,0.0182,-0.0201,-22.2,999.9
2148,324638,45.83505234,-110.9330318,2285.0248,1,6,0.0216,0.0207,0.0485,0.005,0.0181,-0.0199,-22,999.9
2148,324638.2,45.8350473,-110.9330266,2285.1712,1,6,0.0215,0.0206,0.0482,0.005,0.018,-0.0197,-21.8,999.9
2148,324638.4,45.83504227,-110.9330215,2285.3086,1,6,0.0213,0.0204,0.0478,0.0049,0.0178,-0.0196,-21.6,999.9
2148,324638.6,45.83503732,-110.9330164,2285.4565,1,6,0.0211,0.0202,0.0474,0.0049,0.0177,-0.0194,-21.4,999.9
2148,324638.8,45.83503231,-110.9330115,2285.604,1,6,0.0209,0.0201,0.047,0.0049,0.0175,-0.0192,-21.2,999.9
2148,324639,45.83502728,-110.9330065,2285.7691,1,6,0.0208,0.0199,0.0467,0.0048,0.0174,-0.0191,-21,999.9
2148,324639.2,45.8350222,-110.9330014,2285.9423,1,6,0.0206,0.0197,0.0463,0.0048,0.0173,-0.0189,-20.8,999.9
2148,324639.4,45.83501703,-110.9329963,2286.1275,1,6,0.0204,0.0196,0.0459,0.0048,0.0171,-0.0187,-20.6,999.9
2148,324639.6,45.835012,-110.9329914,2286.293,1,6,0.0203,0.0194,0.0456,0.0047,0.017,-0.0186,-20.4,999.9
2148,324639.8,45.8350075,-110.9329871,2286.4261,1,6,0.0201,0.0192,0.0452,0.0047,0.0169,-0.0184,-20.2,999.9
2148,324640,45.83500378,-110.9329836,2286.5141,1,6,0.0199,0.0191,0.0449,0.0047,0.0167,-0.0182,-20,999.9
2148,324640.2,45.83500112,-110.9329814,2286.5585,1,6,0.0198,0.0189,0.0445,0.0046,0.0166,-0.0181,-19.8,999.9
2148,324640.4,45.83499958,-110.9329805,2286.6114,1,6,0.0196,0.0187,0.0448,0.0046,0.0166,-0.0177,-19.6,999.9
2148,324640.6,45.83499903,-110.9329806,2286.706,1,6,0.0202,0.0186,0.0488,0.0053,0.0173,-0.0141,-19.4,999.9
2148,324640.8,45.83499891,-110.9329811,2286.9238,1,6,0.02,0.0184,0.0483,0.0053,0.0171,-0.0139,-19.2,999.9
2148,324641,45.83499849,-110.9329812,2287.2706,1,6,0.0197,0.0182,0.0469,0.0051,0.0167,-0.0144,-19,999.9
2148,324641.2,45.83499745,-110.9329805,2287.7359,1,6,0.0189,0.018,0.0426,0.0044,0.0158,-0.0172,-18.8,999.9
2148,324641.4,45.83499575,-110.9329788,2288.3181,1,6,0.0187,0.0179,0.0422,0.0044,0.0157,-0.017,-18.6,999.9
2148,324641.6,45.83499371,-110.9329766,2288.9535,1,6,0.0185,0.0177,0.0419,0.0044,0.0155,-0.0169,-18.4,999.9
2148,324641.8,45.83499156,-110.9329741,2289.6035,1,6,0.0184,0.0175,0.0415,0.0043,0.0154,-0.0167,-18.2,999.9
2148,324642,45.83498939,-110.9329714,2290.2648,1,6,0.0182,0.0174,0.0411,0.0043,0.0153,-0.0165,-18,999.9
2148,324642.2,45.83498727,-110.9329687,2290.9148,1,6,0.018,0.0172,0.0407,0.0043,0.0151,-0.0164,-17.8,999.9
2148,324642.4,45.83498519,-110.932966,2291.5571,1,6,0.0178,0.017,0.0404,0.0042,0.015,-0.0162,-17.6,999.9
2148,324642.6,45.83498314,-110.9329634,2292.2111,1,6,0.0177,0.0169,0.04,0.0042,0.0148,-0.016,-17.4,999.9
2148,324642.8,45.83498112,-110.9329608,2292.8529,1,6,0.0175,0.0167,0.0396,0.0042,0.0147,-0.0158,-17.2,999.9
2148,324643,45.83497912,-110.9329582,2293.4993,1,6,0.0173,0.0165,0.0393,0.0041,0.0146,-0.0157,-17,999.9
2148,324643.2,45.83497706,-110.9329558,2294.1424,1,6,0.0172,0.0164,0.0389,0.0041,0.0144,-0.0155,-16.8,999.9
2148,324643.4,45.83497498,-110.9329534,2294.7843,1,6,0.017,0.0162,0.0385,0.0041,0.0143,-0.0153,-16.6,999.9
2148,324643.6,45.83497291,-110.9329511,2295.4245,1,6,0.0168,0.016,0.0382,0.004,0.0141,-0.0152,-16.4,999.9
2148,324643.8,45.83497085,-110.9329486,2296.0714,1,6,0.0166,0.0159,0.0378,0.004,0.014,-0.015,-16.2,999.9
2148,324644,45.83496872,-110.9329463,2296.7141,1,6,0.0165,0.0157,0.0374,0.004,0.0138,-0.0148,-16,999.9
2148,324644.2,45.83496646,-110.9329441,2297.3579,1,6,0.0163,0.0155,0.037,0.0039,0.0137,-0.0146,-15.8,999.9
2148,324644.4,45.83496414,-110.932942,2297.9968,1,6,0.0161,0.0153,0.0367,0.0039,0.0136,-0.0145,-15.6,999.9
2148,324644.6,45.83496166,-110.9329399,2298.629,1,6,0.016,0.0152,0.0363,0.0039,0.0134,-0.0143,-15.4,999.9
2148,324644.8,45.83495916,-110.9329376,2299.272,1,6,0.0158,0.015,0.0359,0.0038,0.0133,-0.0141,-15.2,999.9
2148,324645,45.83495665,-110.9329353,2299.9111,1,6,0.0156,0.0148,0.0356,0.0038,0.0131,-0.0139,-15,999.9
2148,324645.2,45.83495413,-110.932933,2300.5475,1,6,0.0154,0.0147,0.0352,0.0038,0.013,-0.0138,-14.8,999.9
2148,324645.4,45.83495165,-110.9329309,2301.187,1,6,0.0153,0.0145,0.0348,0.0037,0.0128,-0.0136,-14.6,999.9
2148,324645.6,45.83494917,-110.9329288,2301.8323,1,6,0.0151,0.0143,0.0345,0.0037,0.0127,-0.0134,-14.4,999.9
2148,324645.8,45.83494662,-110.9329269,2302.4806,1,6,0.0149,0.0142,0.0341,0.0037,0.0126,-0.0133,-14.2,999.9
2148,324646,45.83494405,-110.9329249,2303.1302,1,6,0.0148,0.014,0.0337,0.0036,0.0124,-0.0131,-14,999.9
2148,324646.2,45.83494163,-110.9329228,2303.7525,1,6,0.0146,0.0138,0.0334,0.0036,0.0123,-0.0129,-13.8,999.9
2148,324646.4,45.83493919,-110.9329206,2304.3734,1,6,0.0144,0.0137,0.033,0.0036,0.0121,-0.0127,-13.6,999.9
2148,324646.6,45.83493672,-110.9329182,2305.0116,1,6,0.0143,0.0135,0.0327,0.0035,0.012,-0.0126,-13.4,999.9
2148,324646.8,45.83493421,-110.9329158,2305.6468,1,6,0.0141,0.0133,0.0323,0.0035,0.0119,-0.0124,-13.2,999.9
2148,324647,45.83493178,-110.9329133,2306.2863,1,6,0.0139,0.0132,0.0319,0.0035,0.0117,-0.0122,-13,999.9
2148,324647.2,45.83492939,-110.9329108,2306.9403,1,6,0.0137,0.013,0.0316,0.0034,0.0116,-0.012,-12.8,999.9
2148,324647.4,45.83492713,-110.9329083,2307.5946,1,6,0.0136,0.0128,0.0312,0.0034,0.0114,-0.0119,-12.6,999.9
2148,324647.6,45.83492501,-110.932906,2308.1884,1,6,0.0134,0.0127,0.0309,0.0034,0.0113,-0.0117,-12.4,999.9
2148,324647.8,45.83492315,-110.9329042,2308.6903,1,6,0.0132,0.0125,0.0305,0.0033,0.0112,-0.0115,-12.2,999.9
2148,324648,45.83492172,-110.9329028,2309.0605,1,6,0.0131,0.0123,0.0305,0.0034,0.0111,-0.0112,-12,999.9
2148,324648.2,45.83492068,-110.9329018,2309.3011,1,6,0.0134,0.0122,0.0326,0.0037,0.0114,-0.0089,-11.8,999.9
2148,324648.4,45.83491987,-110.9329016,2309.4299,1,6,0.0127,0.012,0.0294,0.0033,0.0107,-0.011,-11.6,999.9
2148,324648.6,45.83491893,-110.9329025,2309.4978,1,6,0.0126,0.0118,0.029,0.0032,0.0106,-0.0108,-11.4,999.9
2148,324648.8,45.83491748,-110.932905,2309.5613,1,6,0.0124,0.0117,0.0287,0.0032,0.0104,-0.0106,-11.2,999.9
2148,324649,45.8349152,-110.9329092,2309.6526,1,6,0.0122,0.0115,0.0283,0.0032,0.0103,-0.0105,-11,999.9
2148,324649.2,45.834912,-110.9329147,2309.76,1,6,0.0121,0.0113,0.028,0.0031,0.0102,-0.0103,-10.8,999.9
2148,324649.4,45.83490796,-110.9329215,2309.9087,1,6,0.0119,0.0112,0.0276,0.0031,0.01,-0.0101,-10.6,999.9
2148,324649.6,45.83490336,-110.9329292,2310.0769,1,6,0.0117,0.011,0.0273,0.0031,0.0099,-0.0099,-10.4,999.9
2148,324649.8,45.83489861,-110.932937,2310.2479,1,6,0.0116,0.0109,0.0269,0.003,0.0097,-0.0098,-10.2,999.9
2148,324650,45.83489402,-110.9329445,2310.4222,1,6,0.0114,0.0107,0.0266,0.003,0.0096,-0.0096,-10,999.9
2148,324650.2,45.83488964,-110.9329517,2310.6014,1,6,0.0112,0.0105,0.0262,0.003,0.0095,-0.0094,-9.8,999.9
2148,324650.4,45.83488553,-110.9329585,2310.7795,1,6,0.0111,0.0104,0.0259,0.003,0.0093,-0.0093,-9.6,999.9
2148,324650.6,45.83488163,-110.9329652,2310.9506,1,6,0.0109,0.0102,0.0255,0.0029,0.0092,-0.0091,-9.4,999.9
2148,324650.8,45.83487794,-110.9329719,2311.1223,1,6,0.0108,0.0101,0.0252,0.0029,0.0091,-0.0089,-9.2,999.9
2148,324651,45.83487433,-110.9329786,2311.3001,1,6,0.0106,0.0099,0.0248,0.0029,0.0089,-0.0087,-9,999.9
2148,324651.2,45.83487083,-110.9329854,2311.4696,1,6,0.0104,0.0097,0.0245,0.0029,0.0088,-0.0086,-8.8,999.9
2148,324651.4,45.8348674,-110.932992,2311.6495,1,6,0.0103,0.0096,0.0241,0.0028,0.0086,-0.0084,-8.6,999.9
2148,324651.6,45.83486402,-110.9329986,2311.8282,1,6,0.0101,0.0094,0.0238,0.0028,0.0085,-0.0082,-8.4,999.9
2148,324651.8,45.83486058,-110.9330052,2312.0034,1,6,0.01,0.0093,0.0234,0.0028,0.0084,-0.0081,-8.2,999.9
2148,324652,45.83485705,-110.9330117,2312.193,1,6,0.0098,0.0091,0.0231,0.0028,0.0082,-0.0079,-8,999.9
2148,324652.2,45.83485344,-110.9330181,2312.3718,1,6,0.0096,0.0089,0.0228,0.0027,0.0081,-0.0077,-7.8,999.9
2148,324652.4,45.83484979,-110.9330244,2312.5478,1,6,0.0095,0.0088,0.0224,0.0027,0.008,-0.0076,-7.6,999.9
2148,324652.6,45.83484603,-110.9330305,2312.7261,1,6,0.0093,0.0086,0.0221,0.0027,0.0078,-0.0074,-7.4,999.9
2148,324652.8,45.83484216,-110.9330367,2312.8987,1,6,0.0092,0.0085,0.0218,0.0027,0.0077,-0.0072,-7.2,999.9
2148,324653,45.83483816,-110.9330429,2313.0873,1,6,0.009,0.0083,0.0214,0.0026,0.0076,-0.0071,-7,999.9
2148,324653.2,45.83483412,-110.9330491,2313.266,1,6,0.0089,0.0082,0.0211,0.0026,0.0074,-0.0069,-6.8,999.9
2148,324653.4,45.8348301,-110.9330554,2313.4466,1,6,0.0087,0.008,0.0208,0.0026,0.0073,-0.0068,-6.6,999.9
2148,324653.6,45.8348261,-110.9330617,2313.634,1,6,0.0086,0.0079,0.0205,0.0026,0.0072,-0.0066,-6.4,928.3
2148,324653.8,45.83482218,-110.9330681,2313.7962,1,6,0.0084,0.0077,0.0201,0.0025,0.0071,-0.0064,-6.2,831.9
2148,324654,45.83481827,-110.9330748,2313.9821,1,6,0.0083,0.0076,0.0198,0.0025,0.0069,-0.0063,-6,733.6
2148,324654.2,45.83481434,-110.9330816,2314.1694,1,6,0.0082,0.0075,0.0195,0.0025,0.0068,-0.0061,-5.8,634.2
2148,324654.4,45.83481043,-110.9330884,2314.3479,1,6,0.008,0.0073,0.0192,0.0025,0.0067,-0.006,-5.6,533.5
2148,324654.6,45.83480647,-110.9330952,2314.5436,1,6,0.0079,0.0072,0.0189,0.0024,0.0066,-0.0058,-5.4,431.7
2148,324654.8,45.83480245,-110.9331019,2314.7472,1,6,0.0077,0.007,0.0186,0.0024,0.0064,-0.0057,-5.2,328.5
2148,324655,45.83479855,-110.9331085,2314.9348,1,6,0.0076,0.0069,0.0183,0.0024,0.0063,-0.0056,-5,222.8
2148,324655.2,45.83479505,-110.9331143,2315.0951,1,6,0.0075,0.0068,0.018,0.0024,0.0062,-0.0054,-4.8,114.7
2148,324655.4,45.83479229,-110.9331191,2315.2412,1,6,0.0073,0.0067,0.0177,0.0024,0.0061,-0.0053,-4.6,4.6
2148,324655.6,45.83479044,-110.9331226,2315.3574,1,6,0.0073,0.0066,0.0186,0.0025,0.0062,-0.0042,-4.4,999.9
2148,324655.8,45.8347895,-110.9331249,2315.4307,1,6,0.0073,0.0064,0.0187,0.0025,0.0062,-0.0036,-4.2,999.9
2148,324656,45.83478938,-110.9331263,2315.4581,1,5,0.0072,0.0063,0.0184,0.0025,0.0061,-0.0035,-4,999.9
2148,324656.2,45.83479011,-110.9331272,2315.4054,1,5,0.007,0.0062,0.0181,0.0024,0.0059,-0.0034,-3.8,999.9
2148,324656.4,45.83479158,-110.9331281,2315.2838,1,5,0.0069,0.0061,0.0178,0.0024,0.0058,-0.0033,-3.6,999.9
2148,324656.6,45.83479388,-110.9331293,2315.0994,1,5,0.0068,0.006,0.0176,0.0024,0.0058,-0.0032,-3.4,999.9
2148,324656.8,45.83479688,-110.9331313,2314.8572,1,5,0.007,0.0059,0.0194,0.0026,0.0061,0.0028,-3.2,999.9
2148,324657,45.83480043,-110.933134,2314.5187,1,5,0.0069,0.0058,0.019,0.0026,0.006,0.0026,-3,999.9
2148,324657.2,45.83480454,-110.9331376,2314.1092,1,5,0.0067,0.0057,0.0184,0.0025,0.0058,0.0022,-2.8,999.9
2148,324657.4,45.834809,-110.933142,2313.671,1,6,0.0064,0.0056,0.0162,0.0023,0.0053,-0.0032,-2.6,999.9
2148,324657.6,45.83481364,-110.9331468,2313.2136,1,6,0.0061,0.0055,0.0149,0.0022,0.005,-0.0042,-2.4,999.9
2148,324657.8,45.83481834,-110.9331517,2312.7536,1,6,0.0061,0.0054,0.0147,0.0021,0.0049,-0.0041,-2.2,999.9
2148,324658,45.83482299,-110.9331566,2312.3034,1,6,0.006,0.0053,0.0145,0.0021,0.0048,-0.004,-2,999.9
2148,324658.2,45.83482755,-110.9331614,2311.8767,1,6,0.0059,0.0053,0.0143,0.0021,0.0047,-0.004,-1.8,999.9
2148,324658.4,45.83483205,-110.9331661,2311.4375,1,6,0.0059,0.0052,0.0142,0.0021,0.0047,-0.0039,-1.6,999.9
2148,324658.6,45.83483641,-110.9331706,2311.0032,1,6,0.0058,0.0051,0.014,0.0021,0.0046,-0.0039,-1.4,999.9
2148,324658.8,45.83484064,-110.9331748,2310.5653,1,6,0.0057,0.0051,0.0139,0.0021,0.0046,-0.0039,-1.2,999.9
2148,324659,45.83484476,-110.9331789,2310.1327,1,6,0.0057,0.005,0.0138,0.0021,0.0045,-0.0038,-1,999.9
2148,324659.2,45.83484894,-110.9331828,2309.708,1,6,0.0057,0.005,0.0137,0.0021,0.0045,-0.0038,-0.8,999.9
2148,324659.4,45.83485309,-110.9331867,2309.2834,1,6,0.0056,0.005,0.0137,0.0021,0.0045,-0.0038,-0.6,999.9
2148,324659.6,45.83485735,-110.9331904,2308.854,1,6,0.0056,0.005,0.0137,0.0021,0.0045,-0.0038,-0.4,999.9
2148,324659.8,45.83486151,-110.9331942,2308.4199,1,6,0.0057,0.005,0.014,0.0021,0.0046,-0.0039,-0.2,999.9
2148,324660,45.83486567,-110.933198,2307.9892,1,6,0.0058,0.0051,0.0143,0.0021,0.0047,-0.004,0,999.9
2148,324660.2,45.83487003,-110.9332021,2307.5692,1,6,0.0283,0.0273,0.0628,0.0062,0.0236,-0.0264,-29.8,999.9
2148,324660.4,45.83487409,-110.9332059,2307.1423,1,6,0.0281,0.0271,0.0624,0.0061,0.0235,-0.0262,-29.6,999.9
2148,324660.6,45.83487801,-110.9332099,2306.7143,1,6,0.0279,0.027,0.062,0.0061,0.0234,-0.026,-29.4,999.9
2148,324660.8,45.83488195,-110.9332138,2306.2979,1,6,0.0278,0.0268,0.0617,0.0061,0.0232,-0.0259,-29.2,999.9
2148,324661,45.83488598,-110.9332179,2305.8689,1,6,0.0276,0.0266,0.0613,0.006,0.0231,-0.0257,-29,999.9
2148,324661.2,45.83489014,-110.9332221,2305.4493,1,6,0.0274,0.0265,0.0609,0.006,0.0229,-0.0256,-28.8,999.9
2148,324661.4,45.83489442,-110.9332264,2305.028,1,6,0.0272,0.0263,0.0606,0.006,0.0228,-0.0254,-28.6,999.9
2148,324661.6,45.83489871,-110.9332307,2304.6035,1,6,0.0271,0.0261,0.0602,0.0059,0.0227,-0.0252,-28.4,999.9
2148,324661.8,45.834903,-110.9332351,2304.1723,1,6,0.0269,0.026,0.0598,0.0059,0.0225,-0.0251,-28.2,999.9
2148,324662,45.83490732,-110.9332393,2303.7426,1,6,0.0267,0.0258,0.0595,0.0058,0.0224,-0.0249,-28,999.9
2148,324662.2,45.83491158,-110.9332434,2303.3217,1,6,0.0266,0.0256,0.0591,0.0058,0.0223,-0.0247,-27.8,999.9
2148,324662.4,45.83491582,-110.9332473,2302.9082,1,6,0.0264,0.0255,0.0587,0.0058,0.0221,-0.0246,-27.6,999.9
2148,324662.6,45.83492,-110.9332512,2302.4859,1,6,0.0262,0.0253,0.0584,0.0057,0.022,-0.0244,-27.4,999.9
2148,324662.8,45.83492415,-110.9332553,2302.0621,1,6,0.0261,0.0251,0.058,0.0057,0.0218,-0.0243,-27.2,999.9
2148,324663,45.83492823,-110.9332595,2301.6457,1,6,0.0259,0.025,0.0576,0.0057,0.0217,-0.0241,-27,999.9
2148,324663.2,45.83493233,-110.9332636,2301.229,1,6,0.0257,0.0248,0.0573,0.0056,0.0216,-0.0239,-26.8,999.9
2148,324663.4,45.83493634,-110.9332677,2300.8055,1,6,0.0255,0.0246,0.0569,0.0056,0.0214,-0.0238,-26.6,999.9
2148,324663.6,45.83494032,-110.9332719,2300.3874,1,6,0.0254,0.0245,0.0565,0.0055,0.0213,-0.0236,-26.4,999.9
2148,324663.8,45.83494428,-110.9332763,2299.9725,1,6,0.0252,0.0243,0.0562,0.0055,0.0211,-0.0234,-26.2,999.9
2148,324664,45.83494824,-110.9332807,2299.5556,1,6,0.025,0.0241,0.0558,0.0055,0.021,-0.0233,-26,999.9
2148,324664.2,45.83495228,-110.9332852,2299.1453,1,6,0.0249,0.024,0.0554,0.0054,0.0209,-0.0231,-25.8,999.9
2148,324664.4,45.83495631,-110.9332895,2298.7284,1,6,0.0247,0.0238,0.0551,0.0054,0.0207,-0.0229,-25.6,999.9
2148,324664.6,45.8349604,-110.9332939,2298.308,1,6,0.0245,0.0236,0.0547,0.0054,0.0206,-0.0228,-25.4,999.9
2148,324664.8,45.83496451,-110.9332981,2297.8795,1,6,0.0243,0.0235,0.0543,0.0053,0.0204,-0.0226,-25.2,999.9
2148,324665,45.83496863,-110.9333023,2297.4523,1,6,0.0242,0.0233,0.054,0.0053,0.0203,-0.0224,-25,999.9
2148,324665.2,45.83497272,-110.9333065,2297.0342,1,6,0.024,0.0231,0.0536,0.0053,0.0202,-0.0223,-24.8,999.9
2148,324665.4,45.83497678,-110.9333107,2296.6154,1,6,0.0238,0.023,0.0532,0.0052,0.02,-0.0221,-24.6,999.9
2148,324665.6,45.83498085,-110.9333151,2296.2004,1,6,0.0237,0.0228,0.0528,0.0052,0.0199,-0.0219,-24.4,999.9
2148,324665.8,45.83498502,-110.9333196,2295.7716,1,6,0.0235,0.0226,0.0525,0.0052,0.0197,-0.0218,-24.2,999.9
2148,324666,45.83498932,-110.9333241,2295.3469,1,6,0.0233,0.0225,0.0521,0.0051,0.0196,-0.0216,-24,999.9
2148,324666.2,45.83499368,-110.9333286,2294.9205,1,6,0.0231,0.0223,0.0517,0.0051,0.0194,-0.0214,-23.8,999.9
2148,324666.4,45.83499796,-110.933333,2294.5056,1,6,0.023,0.0221,0.0514,0.005,0.0193,-0.0213,-23.6,999.9
2148,324666.6,45.83500228,-110.9333373,2294.083,1,6,0.0228,0.022,0.051,0.005,0.0192,-0.0211,-23.4,999.9
2148,324666.8,45.8350066,-110.9333415,2293.6658,1,6,0.0226,0.0218,0.0506,0.005,0.019,-0.0209,-23.2,999.9
2148,324667,45.83501092,-110.9333456,2293.2403,1,6,0.0225,0.0216,0.0503,0.0049,0.0189,-0.0208,-23,999.9
2148,324667.2,45.83501518,-110.9333496,2292.8247,1,6,0.0223,0.0215,0.0499,0.0049,0.0187,-0.0206,-22.8,999.9
2148,324667.4,45.83501938,-110.9333536,2292.4094,1,6,0.0221,0.0213,0.0495,0.0049,0.0186,-0.0204,-22.6,999.9
2148,324667.6,45.83502351,-110.9333575,2291.998,1,6,0.0219,0.0211,0.0492,0.0048,0.0185,-0.0203,-22.4,999.9
2148,324667.8,45.83502761,-110.9333616,2291.5845,1,6,0.0218,0.021,0.0488,0.0048,0.0183,-0.0201,-22.2,999.9
2148,324668,45.83503175,-110.9333656,2291.1709,1,6,0.0216,0.0208,0.0484,0.0048,0.0182,-0.0199,-22,999.9
2148,324668.2,45.83503581,-110.9333696,2290.7584,1,6,0.0214,0.0206,0.048,0.0047,0.018,-0.0198,-21.8,999.9
2148,324668.4,45.83503986,-110.9333737,2290.3426,1,6,0.0213,0.0205,0.0477,0.0047,0.0179,-0.0196,-21.6,999.9
2148,324668.6,45.83504388,-110.9333776,2289.932,1,6,0.0211,0.0203,0.0473,0.0047,0.0177,-0.0194,-21.4,999.9
2148,324668.8,45.83504791,-110.9333816,2289.5124,1,6,0.0209,0.0201,0.0469,0.0046,0.0176,-0.0193,-21.2,999.9
2148,324669,45.83505196,-110.9333857,2289.0946,1,6,0.0207,0.0199,0.0466,0.0046,0.0175,-0.0191,-21,999.9
2148,324669.2,45.83505605,-110.9333898,2288.6823,1,6,0.0206,0.0198,0.0462,0.0046,0.0173,-0.0189,-20.8,999.9
2148,324669.4,45.83506013,-110.9333938,2288.2669,1,6,0.0204,0.0196,0.0458,0.0045,0.0172,-0.0188,-20.6,999.9
2148,324669.6,45.83506418,-110.9333979,2287.8572,1,6,0.0202,0.0194,0.0455,0.0045,0.017,-0.0186,-20.4,999.9
2148,324669.8,45.83506826,-110.9334021,2287.4355,1,6,0.0201,0.0193,0.0451,0.0045,0.0169,-0.0184,-20.2,999.9
2148,324670,45.83507235,-110.9334063,2287.022,1,6,0.0199,0.0191,0.0447,0.0044,0.0168,-0.0183,-20,999.9
2148,324670.2,45.83507646,-110.9334105,2286.6168,1,6,0.0197,0.0189,0.0444,0.0044,0.0166,-0.0181,-19.8,999.9
2148,324670.4,45.83508065,-110.9334146,2286.207,1,6,0.0195,0.0188,0.044,0.0044,0.0165,-0.0179,-19.6,999.9
2148,324670.6,45.83508482,-110.9334186,2285.7957,1,6,0.0194,0.0186,0.0436,0.0043,0.0163,-0.0177,-19.4,999.9
2148,324670.8,45.835089,-110.9334225,2285.3814,1,6,0.0192,0.0184,0.0432,0.0043,0.0162,-0.0176,-19.2,999.9
2148,324671,45.83509319,-110.9334264,2284.9807,1,6,0.019,0.0183,0.0429,0.0043,0.016,-0.0174,-19,999.9
2148,324671.2,45.83509735,-110.9334306,2284.5774,1,6,0.0188,0.0181,0.0425,0.0042,0.0159,-0.0172,-18.8,999.9
2148,324671.4,45.83510145,-110.9334348,2284.1646,1,6,0.0187,0.0179,0.0421,0.0042,0.0158,-0.0171,-18.6,999.9
2148,324671.6,45.83510556,-110.933439,2283.7414,1,6,0.0185,0.0178,0.0418,0.0042,0.0156,-0.0169,-18.4,999.9
2148,324671.8,45.83510969,-110.9334432,2283.3114,1,6,0.0183,0.0176,0.0414,0.0041,0.0155,-0.0167,-18.2,999.9
2148,324672,45.83511378,-110.9334474,2282.892,1,6,0.0182,0.0174,0.041,0.0041,0.0153,-0.0166,-18,999.9
2148,324672.2,45.83511747,-110.9334512,2282.5241,1,6,0.018,0.0173,0.0407,0.0041,0.0152,-0.0164,-17.8,999.9
2148,324672.4,45.83512044,-110.9334541,2282.213,1,6,0.0178,0.0171,0.0403,0.004,0.015,-0.0162,-17.6,999.9
2148,324672.6,45.83512254,-110.9334561,2281.982,1,6,0.0176,0.0169,0.0399,0.004,0.0149,-0.016,-17.4,999.9
2148,324672.8,45.8351238,-110.9334569,2281.832,1,6,0.0175,0.0167,0.0396,0.004,0.0148,-0.0159,-17.2,999.9
2148,324673,45.83512453,-110.9334571,2281.784,1,6,0.0173,0.0166,0.0392,0.0039,0.0146,-0.0157,-17,999.9
2148,324673.2,45.83512526,-110.9334572,2281.8585,1,6,0.0171,0.0164,0.0388,0.0039,0.0145,-0.0155,-16.8,999.9
2148,324673.4,45.83512642,-110.9334578,2282.027,1,6,0.017,0.0162,0.0385,0.0039,0.0143,-0.0154,-16.6,999.9
2148,324673.6,45.83512837,-110.9334593,2282.2867,1,6,0.0168,0.0161,0.0381,0.0038,0.0142,-0.0152,-16.4,999.9
2148,324673.8,45.83513114,-110.9334621,2282.6286,1,6,0.0166,0.0159,0.0377,0.0038,0.014,-0.015,-16.2,999.9
2148,324674,45.83513476,-110.9334661,2283.0519,1,6,0.0164,0.0157,0.0373,0.0038,0.0139,-0.0148,-16,999.9
2148,324674.2,45.83513891,-110.9334708,2283.5203,1,6,0.0163,0.0156,0.037,0.0037,0.0138,-0.0147,-15.8,999.9
2148,324674.4,45.83514319,-110.9334757,2284.0043,1,6,0.0161,0.0154,0.0366,0.0037,0.0136,-0.0145,-15.6,999.9
2148,324674.6,45.83514741,-110.9334807,2284.4826,1,6,0.0159,0.0152,0.0363,0.0037,0.0135,-0.0143,-15.4,999.9
2148,324674.8,45.83515152,-110.9334855,2284.9537,1,6,0.0158,0.0151,0.0359,0.0036,0.0133,-0.0141,-15.2,999.9
2148,324675,45.83515556,-110.93349,2285.4247,1,6,0.0156,0.0149,0.0355,0.0036,0.0132,-0.014,-15,999.9
2148,324675.2,45.83515958,-110.9334942,2285.8959,1,6,0.0154,0.0147,0.0352,0.0036,0.013,-0.0138,-14.8,999.9
2148,324675.4,45.83516357,-110.9334984,2286.3661,1,6,0.0153,0.0146,0.0348,0.0036,0.0129,-0.0136,-14.6,999.9
2148,324675.6,45.83516756,-110.9335024,2286.8213,1,6,0.0151,0.0144,0.0344,0.0035,0.0128,-0.0134,-14.4,999.9
2148,324675.8,45.83517161,-110.9335062,2287.2854,1,6,0.0149,0.0142,0.0341,0.0035,0.0126,-0.0133,-14.2,999.9
2148,324676,45.83517564,-110.93351,2287.7607,1,6,0.0147,0.014,0.0337,0.0035,0.0125,-0.0131,-14,999.9
2148,324676.2,45.83517965,-110.9335137,2288.228,1,6,0.0146,0.0139,0.0333,0.0034,0.0123,-0.0129,-13.8,999.9
2148,324676.4,45.83518357,-110.9335176,2288.6953,1,6,0.0144,0.0137,0.033,0.0034,0.0122,-0.0128,-13.6,999.9
2148,324676.6,45.83518744,-110.9335215,2289.1601,1,6,0.0142,0.0135,0.0326,0.0034,0.012,-0.0126,-13.4,999.9
2148,324676.8,45.83519128,-110.9335255,2289.6215,1,6,0.0141,0.0134,0.0322,0.0034,0.0119,-0.0124,-13.2,999.9
2148,324677,45.83519509,-110.9335295,2290.0876,1,6,0.0139,0.0132,0.0319,0.0033,0.0118,-0.0122,-13,999.9
2148,324677.2,45.83519896,-110.9335334,2290.5421,1,6,0.0137,0.013,0.0315,0.0033,0.0116,-0.0121,-12.8,999.9
2148,324677.4,45.83520278,-110.9335373,2290.9963,1,6,0.0136,0.0129,0.0312,0.0033,0.0115,-0.0119,-12.6,999.9
2148,324677.6,45.83520665,-110.9335411,2291.4619,1,6,0.0134,0.0127,0.0308,0.0032,0.0113,-0.0117,-12.4,999.9
2148,324677.8,45.83521056,-110.933545,2291.9246,1,6,0.0132,0.0125,0.0304,0.0032,0.0112,-0.0115,-12.2,999.9
2148,324678,45.8352145,-110.933549,2292.392,1,6,0.0131,0.0124,0.0301,0.0032,0.0111,-0.0114,-12,999.9
2148,324678.2,45.83521841,-110.933553,2292.8472,1,6,0.0129,0.0122,0.0297,0.0032,0.0109,-0.0112,-11.8,999.9
2148,324678.4,45.83522229,-110.9335571,2293.3028,1,6,0.0127,0.012,0.0294,0.0031,0.0108,-0.011,-11.6,999.9
2148,324678.6,45.83522614,-110.9335611,2293.7605,1,6,0.0126,0.0119,0.029,0.0031,0.0106,-0.0108,-11.4,999.9
2148,324678.8,45.83522994,-110.9335652,2294.2161,1,6,0.0124,0.0117,0.0287,0.0031,0.0105,-0.0107,-11.2,999.9
2148,324679,45.8352338,-110.9335692,2294.6822,1,6,0.0122,0.0115,0.0283,0.003,0.0103,-0.0105,-11,999.9
2148,324679.2,45.83523775,-110.9335732,2295.1414,1,6,0.0121,0.0114,0.0279,0.003,0.0102,-0.0103,-10.8,999.9
2148,324679.4,45.83524164,-110.9335771,2295.5933,1,6,0.0119,0.0112,0.0276,0.003,0.0101,-0.0101,-10.6,999.9
2148,324679.6,45.83524515,-110.9335806,2295.9858,1,6,0.0117,0.0111,0.0272,0.003,0.0099,-0.01,-10.4,999.9
2148,324679.8,45.83524816,-110.9335834,2296.3098,1,6,0.0116,0.0109,0.0269,0.0029,0.0098,-0.0098,-10.2,999.9
2148,324680,45.83525053,-110.9335853,2296.5594,1,6,0.0114,0.0107,0.0265,0.0029,0.0096,-0.0096,-10,999.9
2148,324680.2,45.83525221,-110.9335865,2296.7122,1,6,0.0112,0.0106,0.0262,0.0029,0.0095,-0.0094,-9.8,999.9
2148,324680.4,45.83525286,-110.9335871,2296.7938,1,6,0.0111,0.0104,0.0258,0.0029,0.0094,-0.0093,-9.6,999.9
2148,324680.6,45.83525247,-110.9335877,2296.8255,1,6,0.0109,0.0102,0.0255,0.0028,0.0092,-0.0091,-9.4,999.9
2148,324680.8,45.83525093,-110.933589,2296.8358,1,6,0.0107,0.0101,0.0251,0.0028,0.0091,-0.0089,-9.2,999.9
2148,324681,45.83524833,-110.9335914,2296.8458,1,6,0.0106,0.0099,0.0248,0.0028,0.009,-0.0088,-9,999.9
2148,324681.2,45.83524487,-110.9335954,2296.8708,1,6,0.0104,0.0098,0.0245,0.0028,0.0088,-0.0086,-8.8,999.9
2148,324681.4,45.83524064,-110.9336012,2296.9028,1,6,0.0103,0.0096,0.0241,0.0027,0.0087,-0.0084,-8.6,999.9
2148,324681.6,45.83523584,-110.9336082,2296.9469,1,6,0.0101,0.0094,0.0238,0.0027,0.0085,-0.0082,-8.4,999.9
2148,324681.8,45.83523088,-110.9336161,2296.9911,1,6,0.01,0.0093,0.0234,0.0027,0.0084,-0.0081,-8.2,999.9
2148,324682,45.83522597,-110.9336243,2297.0227,1,6,0.0098,0.0091,0.0231,0.0027,0.0083,-0.0079,-8,999.9
2148,324682.2,45.8352213,-110.9336326,2297.0629,1,6,0.0096,0.009,0.0228,0.0026,0.0081,-0.0077,-7.8,999.9
2148,324682.4,45.83521693,-110.9336407,2297.0891,1,6,0.0095,0.0088,0.0224,0.0026,0.008,-0.0076,-7.6,999.9
2148,324682.6,45.83521287,-110.9336486,2297.1154,1,6,0.0093,0.0087,0.0221,0.0026,0.0079,-0.0074,-7.4,999.9
2148,324682.8,45.83520901,-110.9336564,2297.1453,1,6,0.0092,0.0085,0.0218,0.0026,0.0077,-0.0072,-7.2,999.9
2148,324683,45.83520537,-110.933664,2297.1916,1,6,0.009,0.0084,0.0214,0.0026,0.0076,-0.0071,-7,999.9
2148,324683.2,45.83520191,-110.9336715,2297.2415,1,6,0.0089,0.0082,0.0211,0.0025,0.0075,-0.0069,-6.8,999.9
2148,324683.4,45.83519854,-110.9336789,2297.2909,1,6,0.0087,0.0081,0.0208,0.0025,0.0073,-0.0068,-6.6,999.9
2148,324683.6,45.83519521,-110.9336863,2297.3455,1,6,0.0086,0.0079,0.0205,0.0025,0.0072,-0.0066,-6.4,999.9
2148,324683.8,45.83519191,-110.9336936,2297.4016,1,6,0.0084,0.0078,0.0201,0.0025,0.0071,-0.0064,-6.2,999.9
2148,324684,45.83518857,-110.9337008,2297.4595,1,6,0.0083,0.0076,0.0198,0.0025,0.007,-0.0063,-6,999.9
2148,324684.2,45.8351852,-110.933708,2297.5211,1,6,0.0081,0.0075,0.0195,0.0024,0.0068,-0.0061,-5.8,999.9
2148,324684.4,45.8351818,-110.9337151,2297.5795,1,6,0.008,0.0073,0.0192,0.0024,0.0067,-0.006,-5.6,999.9
2148,324684.6,45.83517831,-110.9337221,2297.6407,1,6,0.0079,0.0072,0.0189,0.0024,0.0066,-0.0058,-5.4,999.9
2148,324684.8,45.83517477,-110.9337292,2297.6915,1,6,0.0077,0.0071,0.0186,0.0024,0.0065,-0.0057,-5.2,999.9
2148,324685,45.8351712,-110.9337362,2297.7452,1,6,0.0076,0.0069,0.0183,0.0024,0.0063,-0.0056,-5,999.9
2148,324685.2,45.83516754,-110.9337432,2297.8104,1,6,0.0075,0.0068,0.018,0.0023,0.0062,-0.0054,-4.8,999.9
2148,324685.4,45.83516389,-110.9337503,2297.8759,1,6,0.0073,0.0067,0.0177,0.0023,0.0061,-0.0053,-4.6,999.9
2148,324685.6,45.8351602,-110.9337575,2297.9315,1,6,0.0072,0.0065,0.0174,0.0023,0.006,-0.0052,-4.4,999.9
2148,324685.8,45.83515653,-110.9337647,2297.992,1,6,0.0071,0.0064,0.0171,0.0023,0.0059,-0.0051,-4.2,999.9
2148,324686,45.83515281,-110.9337719,2298.0463,1,6,0.007,0.0063,0.0169,0.0023,0.0058,-0.0049,-4,999.9
2148,324686.2,45.83514909,-110.9337791,2298.1096,1,6,0.0068,0.0062,0.0166,0.0022,0.0056,-0.0048,-3.8,999.9
2148,324686.4,45.83514532,-110.9337863,2298.1664,1,6,0.0067,0.0061,0.0163,0.0022,0.0055,-0.0047,-3.6,999.9
2148,324686.6,45.83514161,-110.9337935,2298.2236,1,6,0.0066,0.006,0.0161,0.0022,0.0054,-0.0046,-3.4,999.9
2148,324686.8,45.835138,-110.9338006,2298.2782,1,6,0.0065,0.0059,0.0158,0.0022,0.0053,-0.0045,-3.2,999.9
2148,324687,45.83513483,-110.933807,2298.3327,1,6,0.0064,0.0058,0.0156,0.0022,0.0052,-0.0044,-3,999.9
2148,324687.2,45.83513236,-110.9338122,2298.3726,1,6,0.0063,0.0057,0.0153,0.0022,0.0051,-0.0043,-2.8,999.9
2148,324687.4,45.8351307,-110.9338159,2298.4028,1,6,0.0062,0.0056,0.0151,0.0021,0.0051,-0.0043,-2.6,999.9
2148,324687.6,45.83512977,-110.9338181,2298.4153,1,6,0.0061,0.0055,0.0149,0.0021,0.005,-0.0042,-2.4,999.9
2148,324687.8,45.83512927,-110.9338185,2298.4255,1,6,0.0061,0.0054,0.0147,0.0021,0.0049,-0.0041,-2.2,999.9
2148,324688,45.83512875,-110.9338172,2298.4367,1,6,0.006,0.0053,0.0145,0.0021,0.0048,-0.004,-2,999.9
2148,324688.2,45.83512778,-110.9338144,2298.439,1,6,0.0059,0.0053,0.0143,0.0021,0.0047,-0.004,-1.8,999.9
2148,324688.4,45.8351259,-110.9338103,2298.4368,1,6,0.0058,0.0052,0.0142,0.0021,0.0047,-0.0039,-1.6,999.9
2148,324688.6,45.83512297,-110.9338054,2298.4623,1,6,0.0058,0.0051,0.014,0.0021,0.0046,-0.0039,-1.4,999.9
2148,324688.8,45.83511887,-110.9337997,2298.4792,1,6,0.0057,0.0051,0.0139,0.0021,0.0046,-0.0039,-1.2,999.9
2148,324689,45.83511371,-110.9337936,2298.5096,1,6,0.0057,0.0051,0.0138,0.002,0.0045,-0.0038,-1,999.9
2148,324689.2,45.83510789,-110.9337872,2298.5613,1,6,0.0057,0.005,0.0138,0.002,0.0045,-0.0038,-0.8,999.9
2148,324689.4,45.83510188,-110.9337811,2298.5971,1,6,0.0056,0.005,0.0137,0.002,0.0045,-0.0038,-0.6,999.9
2148,324689.6,45.83509585,-110.9337753,2298.6284,1,6,0.0056,0.005,0.0137,0.002,0.0045,-0.0038,-0.4,999.9
2148,324689.8,45.83508996,-110.9337698,2298.6493,1,6,0.0057,0.005,0.014,0.0021,0.0046,-0.0039,-0.2,999.9
2148,324690,45.83508429,-110.9337645,2298.677,1,6,0.0057,0.0051,0.0143,0.0021,0.0047,-0.004,0,999.9
2148,324690.2,45.83507876,-110.9337592,2298.8084,1,6,0.0282,0.0274,0.0626,0.0058,0.0237,-0.0264,-29.8,999.9
2148,324690.4,45.83507336,-110.9337541,2298.831,1,6,0.0281,0.0272,0.0622,0.0058,0.0236,-0.0263,-29.6,999.9
2148,324690.6,45.83506802,-110.9337491,2298.867,1,6,0.0279,0.027,0.0619,0.0057,0.0235,-0.0261,-29.4,999.9
2148,324690.8,45.83506272,-110.9337443,2298.9075,1,6,0.0277,0.0269,0.0615,0.0057,0.0233,-0.0259,-29.2,999.9
2148,324691,45.8350574,-110.9337395,2298.9466,1,6,0.0275,0.0267,0.0612,0.0057,0.0232,-0.0258,-29,999.9
2148,324691.2,45.8350522,-110.9337346,2298.993,1,6,0.0274,0.0266,0.0608,0.0056,0.023,-0.0256,-28.8,999.9
2148,324691.4,45.83504703,-110.9337298,2299.0298,1,6,0.0272,0.0264,0.0604,0.0056,0.0229,-0.0254,-28.6,999.9
2148,324691.6,45.83504188,-110.9337251,2299.0698,1,6,0.027,0.0262,0.0601,0.0056,0.0228,-0.0253,-28.4,999.9
2148,324691.8,45.83503677,-110.9337203,2299.1075,1,6,0.0269,0.0261,0.0597,0.0055,0.0226,-0.0251,-28.2,999.9
2148,324692,45.83503172,-110.9337153,2299.1497,1,6,0.0267,0.0259,0.0593,0.0055,0.0225,-0.025,-28,999.9
2148,324692.2,45.83502666,-110.9337104,2299.1922,1,6,0.0265,0.0257,0.059,0.0055,0.0223,-0.0248,-27.8,999.9
2148,324692.4,45.83502165,-110.9337054,2299.2377,1,6,0.0264,0.0256,0.0586,0.0054,0.0222,-0.0246,-27.6,999.9
2148,324692.6,45.83501666,-110.9337004,2299.2726,1,6,0.0262,0.0254,0.0582,0.0054,0.0221,-0.0245,-27.4,999.9
2148,324692.8,45.83501157,-110.9336954,2299.3109,1,6,0.026,0.0252,0.0579,0.0054,0.0219,-0.0243,-27.2,999.9
2148,324693,45.83500646,-110.9336903,2299.3435,1,6,0.0258,0.0251,0.0575,0.0053,0.0218,-0.0241,-27,999.9
2148,324693.2,45.83500132,-110.9336852,2299.3864,1,6,0.0257,0.0249,0.0571,0.0053,0.0216,-0.024,-26.8,999.9
2148,324693.4,45.83499617,-110.93368,2299.4353,1,6,0.0255,0.0247,0.0568,0.0053,0.0215,-0.0238,-26.6,999.9
2148,324693.6,45.83499102,-110.9336749,2299.473,1,6,0.0253,0.0246,0.0564,0.0052,0.0214,-0.0236,-26.4,999.9
2148,324693.8,45.83498587,-110.9336697,2299.5133,1,6,0.0252,0.0244,0.056,0.0052,0.0212,-0.0235,-26.2,999.9
2148,324694,45.83498069,-110.9336644,2299.5511,1,6,0.025,0.0242,0.0557,0.0052,0.0211,-0.0233,-26,999.9
2148,324694.2,45.83497551,-110.9336592,2299.5903,1,6,0.0248,0.024,0.0553,0.0051,0.0209,-0.0231,-25.8,999.9
2148,324694.4,45.83497031,-110.9336539,2299.6187,1,6,0.0246,0.0239,0.0549,0.0051,0.0208,-0.023,-25.6,999.9
2148,324694.6,45.8349651,-110.9336488,2299.657,1,6,0.0245,0.0237,0.0546,0.0051,0.0207,-0.0228,-25.4,999.9
2148,324694.8,45.8349599,-110.9336436,2299.6932,1,6,0.0243,0.0235,0.0542,0.005,0.0205,-0.0226,-25.2,999.9
2148,324695,45.83495468,-110.9336384,2299.731,1,6,0.0241,0.0234,0.0538,0.005,0.0204,-0.0225,-25,999.9
2148,324695.2,45.83494949,-110.9336332,2299.781,1,6,0.024,0.0232,0.0535,0.005,0.0202,-0.0223,-24.8,999.9
2148,324695.4,45.83494431,-110.9336281,2299.8084,1,6,0.0238,0.023,0.0531,0.0049,0.0201,-0.0221,-24.6,999.9
2148,324695.6,45.83493911,-110.9336229,2299.845,1,6,0.0236,0.0229,0.0527,0.0049,0.0199,-0.022,-24.4,999.9
2148,324695.8,45.83493394,-110.9336178,2299.8851,1,6,0.0234,0.0227,0.0524,0.0049,0.0198,-0.0218,-24.2,999.9
2148,324696,45.83492877,-110.9336126,2299.923,1,6,0.0233,0.0225,0.052,0.0048,0.0197,-0.0216,-24,999.9
2148,324696.2,45.83492359,-110.9336075,2299.9705,1,6,0.0231,0.0224,0.0516,0.0048,0.0195,-0.0215,-23.8,999.9
2148,324696.4,45.83491844,-110.9336023,2300.0084,1,6,0.0229,0.0222,0.0512,0.0048,0.0194,-0.0213,-23.6,999.9
2148,324696.6,45.83491327,-110.9335972,2300.0476,1,6,0.0228,0.022,0.0509,0.0047,0.0192,-0.0211,-23.4,999.9
2148,324696.8,45.8349081,-110.9335921,2300.0863,1,6,0.0226,0.0219,0.0505,0.0047,0.0191,-0.021,-23.2,999.9
2148,324697,45.83490288,-110.9335871,2300.1293,1,6,0.0224,0.0217,0.0501,0.0047,0.019,-0.0208,-23,999.9
2148,324697.2,45.83489767,-110.9335822,2300.1657,1,6,0.0222,0.0215,0.0498,0.0046,0.0188,-0.0206,-22.8,999.9
2148,324697.4,45.83489245,-110.9335772,2300.1972,1,6,0.0221,0.0214,0.0494,0.0046,0.0187,-0.0205,-22.6,999.9
2148,324697.6,45.83488732,-110.9335722,2300.2303,1,6,0.0219,0.0212,0.049,0.0046,0.0185,-0.0203,-22.4,999.9
2148,324697.8,45.83488213,-110.9335671,2300.2591,1,6,0.0217,0.021,0.0487,0.0045,0.0184,-0.0201,-22.2,999.9
2148,324698,45.83487699,-110.933562,2300.2939,1,6,0.0216,0.0209,0.0483,0.0045,0.0182,-0.02,-22,999.9
2148,324698.2,45.83487186,-110.9335569,2300.3251,1,6,0.0214,0.0207,0.0479,0.0045,0.0181,-0.0198,-21.8,999.9
2148,324698.4,45.83486676,-110.9335518,2300.3588,1,6,0.0212,0.0205,0.0476,0.0044,0.018,-0.0196,-21.6,999.9
2148,324698.6,45.83486164,-110.9335466,2300.3953,1,6,0.021,0.0203,0.0472,0.0044,0.0178,-0.0195,-21.4,999.9
2148,324698.8,45.83485652,-110.9335415,2300.4403,1,6,0.0209,0.0202,0.0468,0.0044,0.0177,-0.0193,-21.2,999.9
2148,324699,45.8348514,-110.9335363,2300.4864,1,6,0.0207,0.02,0.0465,0.0043,0.0175,-0.0191,-21,999.9
2148,324699.2,45.83484627,-110.9335312,2300.5298,1,6,0.0205,0.0198,0.0461,0.0043,0.0174,-0.019,-20.8,999.9
2148,324699.4,45.83484113,-110.933526,2300.5669,1,6,0.0204,0.0197,0.0457,0.0043,0.0172,-0.0188,-20.6,999.9
2148,324699.6,45.83483597,-110.9335208,2300.6126,1,6,0.0202,0.0195,0.0454,0.0042,0.0171,-0.0186,-20.4,999.9
