% ref pos   : 45.661215782,-111.045002487, 1495.4893
%  GPST        , latitude(deg),longitude(deg), height(m),  Q, ns,  sdn(m),  sde(m),  sdu(m), sdne(m), sdeu(m), sdun(m),age(s), ratio
2194,151171.400,  45.834874576,-110.934338624, 2316.4640,  1,  5,  0.0295,  0.0316,  0.0643, -0.0179,  0.0201, -0.0240,-28.60, 999.9
2194,151171.600,  45.834874921,-110.934338564, 2316.4795,  1,  5,  0.0293,  0.0314,  0.0639, -0.0178,  0.0199, -0.0238,-28.40, 999.9
2194,151171.800,  45.834875232,-110.934338486, 2316.4897,  1,  5,  0.0291,  0.0312,  0.0635, -0.0177,  0.0198, -0.0237,-28.20, 999.9
2194,151172.000,  45.834875461,-110.934338321, 2316.4939,  1,  5,  0.0289,  0.0310,  0.0631, -0.0175,  0.0197, -0.0235,-28.00, 999.9
2194,151172.200,  45.834875609,-110.934337936, 2316.4884,  1,  5,  0.0288,  0.0308,  0.0627, -0.0174,  0.0196, -0.0234,-27.80, 999.9
2194,151172.400,  45.834875707,-110.934337495, 2316.4735,  1,  5,  0.0286,  0.0306,  0.0623, -0.0173,  0.0194, -0.0232,-27.60, 999.9
2194,151172.600,  45.834875824,-110.934337033, 2316.4655,  1,  5,  0.0284,  0.0304,  0.0619, -0.0172,  0.0193, -0.0231,-27.40, 999.9
2194,151172.800,  45.834875922,-110.934336641, 2316.4593,  1,  5,  0.0282,  0.0302,  0.0615, -0.0171,  0.0192, -0.0229,-27.20, 999.9
2194,151173.000,  45.834875981,-110.934336334, 2316.4573,  1,  5,  0.0280,  0.0300,  0.0610, -0.0170,  0.0191, -0.0228,-27.00, 999.9
2194,151173.200,  45.834876003,-110.934336108, 2316.4539,  1,  5,  0.0278,  0.0298,  0.0606, -0.0169,  0.0189, -0.0226,-26.80, 999.9
2194,151173.400,  45.834876045,-110.934335925, 2316.4500,  1,  5,  0.0276,  0.0296,  0.0602, -0.0168,  0.0188, -0.0225,-26.60, 999.9
2194,151173.600,  45.834876036,-110.934335759, 2316.4494,  1,  5,  0.0275,  0.0294,  0.0598, -0.0166,  0.0187, -0.0223,-26.40, 999.9
2194,151173.800,  45.834875969,-110.934335617, 2316.4513,  1,  5,  0.0273,  0.0292,  0.0594, -0.0165,  0.0186, -0.0222,-26.20, 999.9
2194,151174.000,  45.834875867,-110.934335466, 2316.4586,  1,  5,  0.0271,  0.0290,  0.0590, -0.0164,  0.0184, -0.0220,-26.00, 999.9
2194,151174.200,  45.834875767,-110.934335333, 2316.4700,  1,  5,  0.0269,  0.0288,  0.0586, -0.0163,  0.0183, -0.0219,-25.80, 999.9
2194,151174.400,  45.834875664,-110.934335306, 2316.4691,  1,  5,  0.0267,  0.0286,  0.0582, -0.0162,  0.0182, -0.0217,-25.60, 999.9
2194,151174.600,  45.834875527,-110.934335263, 2316.4768,  1,  5,  0.0265,  0.0284,  0.0578, -0.0161,  0.0181, -0.0216,-25.40, 999.9
2194,151174.800,  45.834875398,-110.934335280, 2316.4748,  1,  5,  0.0263,  0.0282,  0.0574, -0.0160,  0.0179, -0.0214,-25.20, 999.9
2194,151175.000,  45.834875265,-110.934335321, 2316.4791,  1,  5,  0.0262,  0.0280,  0.0570, -0.0158,  0.0178, -0.0213,-25.00, 999.9
2194,151175.200,  45.834875152,-110.934335368, 2316.4849,  1,  5,  0.0260,  0.0278,  0.0566, -0.0157,  0.0177, -0.0211,-24.80, 999.9
2194,151175.400,  45.834875043,-110.934335492, 2316.4857,  1,  5,  0.0258,  0.0276,  0.0562, -0.0156,  0.0176, -0.0210,-24.60, 999.9
2194,151175.600,  45.834874951,-110.934335683, 2316.4882,  1,  5,  0.0256,  0.0274,  0.0558, -0.0155,  0.0174, -0.0208,-24.40, 999.9
2194,151175.800,  45.834874819,-110.934335934, 2316.4909,  1,  5,  0.0254,  0.0272,  0.0554, -0.0154,  0.0173, -0.0207,-24.20, 999.9
2194,151176.000,  45.834874614,-110.934336129, 2316.4794,  1,  5,  0.0252,  0.0270,  0.0550, -0.0153,  0.0172, -0.0205,-24.00, 999.9
2194,151176.200,  45.834874345,-110.934336045, 2316.4704,  1,  5,  0.0250,  0.0268,  0.0546, -0.0152,  0.0170, -0.0204,-23.80, 999.9
2194,151176.400,  45.834874130,-110.934335741, 2316.4601,  1,  5,  0.0249,  0.0266,  0.0542, -0.0150,  0.0169, -0.0202,-23.60, 999.9
2194,151176.600,  45.834874054,-110.934335447, 2316.4475,  1,  5,  0.0247,  0.0264,  0.0538, -0.0149,  0.0168, -0.0201,-23.40, 999.9
2194,151176.800,  45.834874101,-110.934335318, 2316.4446,  1,  5,  0.0245,  0.0262,  0.0534, -0.0148,  0.0167, -0.0199,-23.20, 999.9
2194,151177.000,  45.834874206,-110.934335364, 2316.4463,  1,  5,  0.0243,  0.0260,  0.0530, -0.0147,  0.0165, -0.0198,-23.00, 999.9
2194,151177.200,  45.834874293,-110.934335410, 2316.4485,  1,  5,  0.0241,  0.0258,  0.0526, -0.0146,  0.0164, -0.0196,-22.80, 999.9
2194,151177.400,  45.834874378,-110.934335390, 2316.4544,  1,  5,  0.0239,  0.0256,  0.0522, -0.0145,  0.0163, -0.0195,-22.60, 999.9
2194,151177.600,  45.834874541,-110.934335334, 2316.4664,  1,  5,  0.0237,  0.0254,  0.0518, -0.0144,  0.0162, -0.0193,-22.40, 999.9
2194,151177.800,  45.834874762,-110.934335401, 2316.4746,  1,  5,  0.0235,  0.0252,  0.0513, -0.0142,  0.0160, -0.0192,-22.20, 999.9
2194,151178.000,  45.834874933,-110.934335607, 2316.4874,  1,  5,  0.0234,  0.0250,  0.0509, -0.0141,  0.0159, -0.0190,-22.00, 999.9
2194,151178.200,  45.834875008,-110.934335878, 2316.4900,  1,  5,  0.0232,  0.0248,  0.0505, -0.0140,  0.0158, -0.0189,-21.80, 999.9
2194,151178.400,  45.834874932,-110.934336250, 2316.4847,  1,  5,  0.0230,  0.0246,  0.0501, -0.0139,  0.0156, -0.0187,-21.60, 999.9
2194,151178.600,  45.834874711,-110.934336702, 2316.4800,  1,  5,  0.0228,  0.0244,  0.0497, -0.0138,  0.0155, -0.0185,-21.40, 999.9
2194,151178.800,  45.834874333,-110.934337326, 2316.4723,  1,  5,  0.0226,  0.0242,  0.0493, -0.0137,  0.0154, -0.0184,-21.20, 999.9
2194,151179.000,  45.834873656,-110.934338614, 2316.5023,  1,  5,  0.0224,  0.0240,  0.0489, -0.0135,  0.0153, -0.0182,-21.00, 999.9
2194,151179.200,  45.834872475,-110.934340892, 2316.5856,  1,  5,  0.0222,  0.0238,  0.0485, -0.0134,  0.0151, -0.0181,-20.80, 999.9
2194,151179.400,  45.834870664,-110.934344439, 2316.7364,  1,  5,  0.0221,  0.0236,  0.0481, -0.0133,  0.0150, -0.0179,-20.60, 999.9
2194,151179.600,  45.834868147,-110.934349096, 2316.9393,  1,  5,  0.0219,  0.0234,  0.0477, -0.0132,  0.0149, -0.0178,-20.40, 999.9
2194,151179.800,  45.834864892,-110.934354939, 2317.2160,  1,  5,  0.0217,  0.0232,  0.0473, -0.0131,  0.0147, -0.0176,-20.20, 999.9
2194,151180.000,  45.834861059,-110.934361782, 2317.5483,  1,  5,  0.0215,  0.0229,  0.0469, -0.0130,  0.0146, -0.0175,-20.00, 999.9
2194,151180.200,  45.834856999,-110.934368982, 2317.9030,  1,  5,  0.0213,  0.0227,  0.0465, -0.0128,  0.0145, -0.0173,-19.80, 999.9
2194,151180.400,  45.834853005,-110.934376146, 2318.2523,  1,  5,  0.0211,  0.0225,  0.0461, -0.0127,  0.0143, -0.0172,-19.60, 999.9
2194,151180.600,  45.834849095,-110.934383102, 2318.6020,  1,  5,  0.0209,  0.0223,  0.0456, -0.0126,  0.0142, -0.0170,-19.40, 999.9
2194,151180.800,  45.834845404,-110.934389845, 2318.9470,  1,  5,  0.0207,  0.0221,  0.0452, -0.0125,  0.0141, -0.0169,-19.20, 999.9
2194,151181.000,  45.834841804,-110.934396376, 2319.2891,  1,  5,  0.0206,  0.0219,  0.0448, -0.0124,  0.0140, -0.0167,-19.00, 999.9
2194,151181.200,  45.834838348,-110.934402659, 2319.6372,  1,  5,  0.0204,  0.0217,  0.0444, -0.0123,  0.0138, -0.0166,-18.80, 999.9
2194,151181.400,  45.834835102,-110.934408827, 2319.9790,  1,  5,  0.0202,  0.0215,  0.0440, -0.0121,  0.0137, -0.0164,-18.60, 999.9
2194,151181.600,  45.834831937,-110.934414855, 2320.3239,  1,  5,  0.0200,  0.0213,  0.0436, -0.0120,  0.0136, -0.0162,-18.40, 999.9
2194,151181.800,  45.834828780,-110.934420908, 2320.6732,  1,  5,  0.0198,  0.0211,  0.0432, -0.0119,  0.0134, -0.0161,-18.20, 999.9
2194,151182.000,  45.834825568,-110.934426981, 2321.0199,  1,  5,  0.0196,  0.0209,  0.0428, -0.0118,  0.0133, -0.0159,-18.00, 999.9
2194,151182.200,  45.834822356,-110.934433006, 2321.3661,  1,  5,  0.0194,  0.0207,  0.0424, -0.0117,  0.0132, -0.0158,-17.80, 999.9
2194,151182.400,  45.834819198,-110.934438958, 2321.7076,  1,  5,  0.0192,  0.0205,  0.0420, -0.0116,  0.0130, -0.0156,-17.60, 999.9
2194,151182.600,  45.834816065,-110.934444898, 2322.0476,  1,  5,  0.0191,  0.0203,  0.0416, -0.0114,  0.0129, -0.0155,-17.40, 999.9
2194,151182.800,  45.834812877,-110.934450918, 2322.3960,  1,  5,  0.0189,  0.0201,  0.0412, -0.0113,  0.0128, -0.0153,-17.20, 999.9
2194,151183.000,  45.834809706,-110.934456967, 2322.7512,  1,  5,  0.0187,  0.0199,  0.0407, -0.0112,  0.0126, -0.0152,-17.00, 999.9
2194,151183.200,  45.834806496,-110.934462938, 2323.1065,  1,  5,  0.0185,  0.0197,  0.0403, -0.0111,  0.0125, -0.0150,-16.80, 999.9
2194,151183.400,  45.834803295,-110.934468939, 2323.4490,  1,  5,  0.0183,  0.0195,  0.0399, -0.0110,  0.0124, -0.0149,-16.60, 999.9
2194,151183.600,  45.834800033,-110.934474894, 2323.7900,  1,  5,  0.0181,  0.0193,  0.0395, -0.0108,  0.0123, -0.0147,-16.40, 999.9
2194,151183.800,  45.834796809,-110.934481021, 2324.1354,  1,  5,  0.0179,  0.0191,  0.0391, -0.0107,  0.0121, -0.0145,-16.20, 999.9
2194,151184.000,  45.834793644,-110.934487230, 2324.4790,  1,  5,  0.0177,  0.0189,  0.0387, -0.0106,  0.0120, -0.0144,-16.00, 999.9
2194,151184.200,  45.834790473,-110.934493473, 2324.8185,  1,  5,  0.0176,  0.0187,  0.0383, -0.0105,  0.0119, -0.0142,-15.80, 999.9
2194,151184.400,  45.834787241,-110.934499673, 2325.1502,  1,  5,  0.0174,  0.0185,  0.0379, -0.0104,  0.0117, -0.0141,-15.60, 999.9
2194,151184.600,  45.834783948,-110.934505831, 2325.4993,  1,  5,  0.0172,  0.0182,  0.0375, -0.0102,  0.0116, -0.0139,-15.40, 999.9
2194,151184.800,  45.834780642,-110.934512015, 2325.8542,  1,  5,  0.0170,  0.0180,  0.0371, -0.0101,  0.0115, -0.0138,-15.20, 999.9
2194,151185.000,  45.834777273,-110.934518239, 2326.2016,  1,  5,  0.0168,  0.0178,  0.0367, -0.0100,  0.0113, -0.0136,-15.00, 999.9
2194,151185.200,  45.834773826,-110.934524545, 2326.5590,  1,  5,  0.0166,  0.0176,  0.0363, -0.0099,  0.0112, -0.0135,-14.80, 999.9
2194,151185.400,  45.834770360,-110.934530804, 2326.9009,  1,  5,  0.0164,  0.0174,  0.0358, -0.0098,  0.0111, -0.0133,-14.60, 999.9
2194,151185.600,  45.834766901,-110.934536974, 2327.2517,  1,  5,  0.0163,  0.0172,  0.0354, -0.0097,  0.0109, -0.0131,-14.40, 999.9
2194,151185.800,  45.834763422,-110.934543318, 2327.6020,  1,  5,  0.0161,  0.0170,  0.0350, -0.0095,  0.0108, -0.0130,-14.20, 999.9
2194,151186.000,  45.834760003,-110.934549596, 2327.9434,  1,  5,  0.0159,  0.0168,  0.0346, -0.0094,  0.0107, -0.0128,-14.00, 999.9
2194,151186.200,  45.834756539,-110.934555872, 2328.2932,  1,  5,  0.0157,  0.0166,  0.0342, -0.0093,  0.0105, -0.0127,-13.80, 999.9
2194,151186.400,  45.834753197,-110.934562205, 2328.6334,  1,  5,  0.0155,  0.0164,  0.0338, -0.0092,  0.0104, -0.0125,-13.60, 999.9
2194,151186.600,  45.834749798,-110.934568385, 2328.9825,  1,  5,  0.0153,  0.0162,  0.0334, -0.0091,  0.0103, -0.0124,-13.40, 999.9
2194,151186.800,  45.834746410,-110.934574613, 2329.3472,  1,  5,  0.0151,  0.0160,  0.0330, -0.0089,  0.0101, -0.0122,-13.20, 999.9
2194,151187.000,  45.834743006,-110.934580761, 2329.6907,  1,  5,  0.0150,  0.0158,  0.0326, -0.0088,  0.0100, -0.0121,-13.00, 999.9
2194,151187.200,  45.834739590,-110.934586915, 2330.0309,  1,  5,  0.0148,  0.0156,  0.0322, -0.0087,  0.0099, -0.0119,-12.80, 999.9
2194,151187.400,  45.834736136,-110.934593092, 2330.3709,  1,  5,  0.0146,  0.0154,  0.0318, -0.0086,  0.0097, -0.0117,-12.60, 999.9
2194,151187.600,  45.834732576,-110.934599127, 2330.7194,  1,  5,  0.0144,  0.0152,  0.0314, -0.0084,  0.0096, -0.0116,-12.40, 999.9
2194,151187.800,  45.834729021,-110.934605198, 2331.0572,  1,  5,  0.0142,  0.0150,  0.0310, -0.0083,  0.0095, -0.0114,-12.20, 999.9
2194,151188.000,  45.834725458,-110.934611274, 2331.3971,  1,  5,  0.0140,  0.0148,  0.0306, -0.0082,  0.0093, -0.0113,-12.00, 999.9
2194,151188.200,  45.834721953,-110.934617317, 2331.7411,  1,  5,  0.0139,  0.0146,  0.0302, -0.0081,  0.0092, -0.0111,-11.80, 999.9
2194,151188.400,  45.834718477,-110.934623385, 2332.0797,  1,  5,  0.0137,  0.0144,  0.0298, -0.0080,  0.0091, -0.0110,-11.60, 999.9
2194,151188.600,  45.834715109,-110.934629377, 2332.4186,  1,  5,  0.0135,  0.0142,  0.0294, -0.0078,  0.0089, -0.0108,-11.40, 999.9
2194,151188.800,  45.834711724,-110.934635330, 2332.7657,  1,  5,  0.0133,  0.0140,  0.0290, -0.0077,  0.0088, -0.0107,-11.20, 999.9
2194,151189.000,  45.834708403,-110.934641339, 2333.1050,  1,  5,  0.0131,  0.0138,  0.0286, -0.0076,  0.0087, -0.0105,-11.00, 999.9
2194,151189.200,  45.834705048,-110.934647370, 2333.4408,  1,  5,  0.0129,  0.0136,  0.0282, -0.0075,  0.0085, -0.0103,-10.80, 999.9
2194,151189.400,  45.834701686,-110.934653551, 2333.7728,  1,  5,  0.0128,  0.0134,  0.0278, -0.0074,  0.0084, -0.0102,-10.60, 999.9
2194,151189.600,  45.834698350,-110.934659715, 2334.1098,  1,  5,  0.0126,  0.0132,  0.0274, -0.0072,  0.0083, -0.0100,-10.40, 999.9
2194,151189.800,  45.834694985,-110.934666073, 2334.4499,  1,  5,  0.0124,  0.0130,  0.0270, -0.0071,  0.0081, -0.0099,-10.20, 999.9
2194,151190.000,  45.834691734,-110.934672513, 2334.7897,  1,  5,  0.0122,  0.0128,  0.0266, -0.0070,  0.0080, -0.0097,-10.00, 999.9
2194,151190.200,  45.834688389,-110.934678855, 2335.1314,  1,  5,  0.0120,  0.0126,  0.0262, -0.0069,  0.0078, -0.0096, -9.80, 999.9
2194,151190.400,  45.834685092,-110.934685255, 2335.4603,  1,  5,  0.0119,  0.0124,  0.0258, -0.0068,  0.0077, -0.0094, -9.60, 999.9
2194,151190.600,  45.834681813,-110.934691698, 2335.7944,  1,  5,  0.0117,  0.0122,  0.0254, -0.0066,  0.0076, -0.0093, -9.40, 999.9
2194,151190.800,  45.834678566,-110.934698279, 2336.1324,  1,  5,  0.0115,  0.0120,  0.0250, -0.0065,  0.0074, -0.0091, -9.20, 999.9
2194,151191.000,  45.834675292,-110.934704903, 2336.4789,  1,  5,  0.0113,  0.0118,  0.0246, -0.0064,  0.0073, -0.0090, -9.00, 999.9
2194,151191.200,  45.834672004,-110.934711411, 2336.8220,  1,  5,  0.0112,  0.0116,  0.0242, -0.0063,  0.0072, -0.0088, -8.80, 999.9
2194,151191.400,  45.834668721,-110.934717926, 2337.1539,  1,  5,  0.0110,  0.0114,  0.0238, -0.0061,  0.0070, -0.0087, -8.60, 999.9
2194,151191.600,  45.834665380,-110.934724281, 2337.4984,  1,  5,  0.0108,  0.0112,  0.0234, -0.0060,  0.0069, -0.0085, -8.40, 999.9
2194,151191.800,  45.834662002,-110.934730634, 2337.8469,  1,  5,  0.0107,  0.0110,  0.0231, -0.0059,  0.0068, -0.0083, -8.20, 999.9
2194,151192.000,  45.834658564,-110.934736940, 2338.1917,  1,  5,  0.0105,  0.0108,  0.0227, -0.0058,  0.0066, -0.0082, -8.00, 999.9
2194,151192.200,  45.834655158,-110.934743243, 2338.5375,  1,  5,  0.0103,  0.0106,  0.0223, -0.0057,  0.0065, -0.0080, -7.80, 999.9
2194,151192.400,  45.834651764,-110.934749539, 2338.8618,  1,  5,  0.0101,  0.0104,  0.0219, -0.0055,  0.0064, -0.0079, -7.60, 999.9
2194,151192.600,  45.834648347,-110.934755820, 2339.2093,  1,  5,  0.0100,  0.0102,  0.0215, -0.0054,  0.0062, -0.0077, -7.40, 999.9
2194,151192.800,  45.834645009,-110.934762029, 2339.5512,  1,  5,  0.0098,  0.0100,  0.0212, -0.0053,  0.0061, -0.0076, -7.20, 999.9
2194,151193.000,  45.834641592,-110.934768208, 2339.8972,  1,  5,  0.0096,  0.0098,  0.0208, -0.0052,  0.0060, -0.0074, -7.00, 999.9
2194,151193.200,  45.834638265,-110.934774334, 2340.2354,  1,  5,  0.0095,  0.0096,  0.0204, -0.0051,  0.0059, -0.0073, -6.80, 999.9
2194,151193.400,  45.834634971,-110.934780556, 2340.5651,  1,  5,  0.0093,  0.0095,  0.0201, -0.0049,  0.0057, -0.0072, -6.60, 999.9
2194,151193.600,  45.834631581,-110.934786571, 2340.9119,  1,  5,  0.0092,  0.0093,  0.0197, -0.0048,  0.0056, -0.0070, -6.40, 999.9
2194,151193.800,  45.834628211,-110.934792760, 2341.2500,  1,  5,  0.0090,  0.0091,  0.0194, -0.0047,  0.0055, -0.0069, -6.20, 999.9
2194,151194.000,  45.834624767,-110.934798945, 2341.5950,  1,  5,  0.0089,  0.0089,  0.0190, -0.0046,  0.0053, -0.0067, -6.00, 999.9
2194,151194.200,  45.834621272,-110.934805112, 2341.9393,  1,  5,  0.0087,  0.0087,  0.0187, -0.0045,  0.0052, -0.0066, -5.80, 999.9
2194,151194.400,  45.834617820,-110.934811397, 2342.2732,  1,  5,  0.0086,  0.0086,  0.0183, -0.0044,  0.0051, -0.0064, -5.60, 999.9
2194,151194.600,  45.834614386,-110.934817658, 2342.6175,  1,  5,  0.0084,  0.0084,  0.0180, -0.0042,  0.0050, -0.0063, -5.40, 999.9
2194,151194.800,  45.834610980,-110.934823986, 2342.9550,  1,  5,  0.0083,  0.0082,  0.0176, -0.0041,  0.0048, -0.0062, -5.20, 999.9
2194,151195.000,  45.834607557,-110.934830362, 2343.2907,  1,  5,  0.0081,  0.0080,  0.0173, -0.0040,  0.0047, -0.0060, -5.00, 999.9
2194,151195.200,  45.834604177,-110.934836626, 2343.6371,  1,  5,  0.0080,  0.0079,  0.0170, -0.0039,  0.0046, -0.0059, -4.80, 999.9
2194,151195.400,  45.834600828,-110.934842976, 2343.9834,  1,  5,  0.0078,  0.0077,  0.0167, -0.0038,  0.0045, -0.0058, -4.60, 999.9
2194,151195.600,  45.834597404,-110.934849058, 2344.3382,  1,  5,  0.0077,  0.0076,  0.0164, -0.0037,  0.0043, -0.0056, -4.40, 999.9
2194,151195.800,  45.834593986,-110.934855222, 2344.6860,  1,  5,  0.0076,  0.0074,  0.0161, -0.0036,  0.0042, -0.0055, -4.20, 999.9
2194,151196.000,  45.834590516,-110.934861439, 2345.0277,  1,  5,  0.0075,  0.0073,  0.0158, -0.0035,  0.0041, -0.0054, -4.00, 999.9
2194,151196.200,  45.834587014,-110.934867781, 2345.3525,  1,  5,  0.0073,  0.0071,  0.0155, -0.0034,  0.0040, -0.0053, -3.80, 999.9
2194,151196.400,  45.834583563,-110.934874201, 2345.6799,  1,  5,  0.0072,  0.0070,  0.0152, -0.0033,  0.0039, -0.0051, -3.60, 999.9
2194,151196.600,  45.834580063,-110.934880590, 2346.0186,  1,  5,  0.0071,  0.0068,  0.0150, -0.0032,  0.0038, -0.0050, -3.40, 999.9
2194,151196.800,  45.834576618,-110.934887025, 2346.3604,  1,  5,  0.0070,  0.0067,  0.0147, -0.0031,  0.0037, -0.0049, -3.20, 999.9
2194,151197.000,  45.834573209,-110.934893396, 2346.7032,  1,  5,  0.0069,  0.0066,  0.0144, -0.0030,  0.0036, -0.0048, -3.00, 999.9
2194,151197.200,  45.834569771,-110.934899653, 2347.0564,  1,  5,  0.0068,  0.0064,  0.0142, -0.0029,  0.0035, -0.0047, -2.80, 999.9
2194,151197.400,  45.834566362,-110.934905966, 2347.3891,  1,  5,  0.0067,  0.0063,  0.0140, -0.0028,  0.0034, -0.0046, -2.60, 999.9
2194,151197.600,  45.834562995,-110.934912102, 2347.7359,  1,  5,  0.0066,  0.0062,  0.0138, -0.0027,  0.0033, -0.0045, -2.40, 999.9
2194,151197.800,  45.834559605,-110.934918294, 2348.0685,  1,  5,  0.0065,  0.0061,  0.0136, -0.0026,  0.0032, -0.0044, -2.20, 999.9
2194,151198.000,  45.834556166,-110.934924524, 2348.4146,  1,  5,  0.0065,  0.0060,  0.0134, -0.0025,  0.0031, -0.0043, -2.00, 999.9
2194,151198.200,  45.834552724,-110.934930712, 2348.7585,  1,  5,  0.0064,  0.0059,  0.0132, -0.0025,  0.0031, -0.0043, -1.80, 999.9
2194,151198.400,  45.834549348,-110.934937008, 2349.0862,  1,  5,  0.0063,  0.0058,  0.0131, -0.0024,  0.0030, -0.0042, -1.60, 999.9
2194,151198.600,  45.834545915,-110.934943170, 2349.4195,  1,  5,  0.0063,  0.0058,  0.0129, -0.0023,  0.0029, -0.0041, -1.40, 999.9
2194,151198.800,  45.834542457,-110.934949405, 2349.7610,  1,  5,  0.0062,  0.0057,  0.0128, -0.0023,  0.0029, -0.0041, -1.20, 999.9
2194,151199.000,  45.834539067,-110.934955528, 2350.1010,  1,  5,  0.0062,  0.0057,  0.0127, -0.0022,  0.0028, -0.0040, -1.00, 999.9
2194,151199.200,  45.834535684,-110.934961767, 2350.4451,  1,  5,  0.0061,  0.0056,  0.0127, -0.0022,  0.0028, -0.0040, -0.80, 999.9
2194,151199.400,  45.834532336,-110.934968056, 2350.7790,  1,  5,  0.0061,  0.0056,  0.0126, -0.0022,  0.0028, -0.0040, -0.60, 999.9
2194,151199.600,  45.834528942,-110.934974201, 2351.1154,  1,  5,  0.0061,  0.0056,  0.0126, -0.0022,  0.0028, -0.0040, -0.40, 999.9
2194,151199.800,  45.834525579,-110.934980344, 2351.4559,  1,  5,  0.0062,  0.0056,  0.0129, -0.0022,  0.0029, -0.0041, -0.20, 999.9
2194,151200.000,  45.834522227,-110.934986575, 2351.8000,  1,  5,  0.0063,  0.0057,  0.0132, -0.0022,  0.0029, -0.0042,  0.00, 999.9
2194,151200.200,  45.834519075,-110.934993325, 2352.1681,  1,  5,  0.0306,  0.0330,  0.0663, -0.0188,  0.0210, -0.0249,-29.80, 999.9
2194,151200.400,  45.834515804,-110.934999516, 2352.5105,  1,  5,  0.0305,  0.0328,  0.0659, -0.0187,  0.0209, -0.0248,-29.60, 999.9
2194,151200.600,  45.834512483,-110.935005559, 2352.8648,  1,  5,  0.0303,  0.0326,  0.0655, -0.0185,  0.0208, -0.0246,-29.40, 999.9
2194,151200.800,  45.834509201,-110.935011699, 2353.2094,  1,  5,  0.0301,  0.0324,  0.0651, -0.0184,  0.0206, -0.0245,-29.20, 999.9
2194,151201.000,  45.834505956,-110.935017982, 2353.5514,  1,  5,  0.0299,  0.0322,  0.0647, -0.0183,  0.0205, -0.0243,-29.00, 999.9
2194,151201.200,  45.834502686,-110.935024318, 2353.9000,  1,  5,  0.0297,  0.0320,  0.0643, -0.0182,  0.0204, -0.0242,-28.80, 999.9
2194,151201.400,  45.834499432,-110.935030715, 2354.2273,  1,  5,  0.0295,  0.0318,  0.0639, -0.0181,  0.0203, -0.0240,-28.60, 999.9
2194,151201.600,  45.834496154,-110.935037032, 2354.5804,  1,  5,  0.0293,  0.0316,  0.0635, -0.0180,  0.0201, -0.0239,-28.40, 999.9
2194,151201.800,  45.834492824,-110.935043336, 2354.9174,  1,  5,  0.0292,  0.0314,  0.0631, -0.0179,  0.0200, -0.0237,-28.20, 999.9
2194,151202.000,  45.834489406,-110.935049635, 2355.2546,  1,  5,  0.0290,  0.0312,  0.0627, -0.0177,  0.0199, -0.0236,-28.00, 999.9
2194,151202.200,  45.834486032,-110.935055941, 2355.5992,  1,  5,  0.0288,  0.0310,  0.0623, -0.0176,  0.0198, -0.0234,-27.80, 999.9
2194,151202.400,  45.834482755,-110.935062255, 2355.9439,  1,  5,  0.0286,  0.0308,  0.0619, -0.0175,  0.0196, -0.0233,-27.60, 999.9
2194,151202.600,  45.834479446,-110.935068463, 2356.2960,  1,  5,  0.0284,  0.0306,  0.0615, -0.0174,  0.0195, -0.0231,-27.40, 999.9
2194,151202.800,  45.834476164,-110.935074735, 2356.6411,  1,  5,  0.0282,  0.0303,  0.0611, -0.0173,  0.0194, -0.0230,-27.20, 999.9
2194,151203.000,  45.834472891,-110.935081079, 2356.9751,  1,  5,  0.0280,  0.0301,  0.0607, -0.0172,  0.0193, -0.0228,-27.00, 999.9
2194,151203.200,  45.834469596,-110.935087384, 2357.3165,  1,  5,  0.0279,  0.0299,  0.0603, -0.0171,  0.0191, -0.0227,-26.80, 999.9
2194,151203.400,  45.834466307,-110.935093739, 2357.6554,  1,  5,  0.0277,  0.0297,  0.0599, -0.0169,  0.0190, -0.0225,-26.60, 999.9
2194,151203.600,  45.834463003,-110.935100028, 2357.9999,  1,  5,  0.0275,  0.0295,  0.0595, -0.0168,  0.0189, -0.0224,-26.40, 999.9
2194,151203.800,  45.834459704,-110.935106371, 2358.3436,  1,  5,  0.0273,  0.0293,  0.0591, -0.0167,  0.0187, -0.0222,-26.20, 999.9
2194,151204.000,  45.834456349,-110.935112652, 2358.6851,  1,  5,  0.0271,  0.0291,  0.0587, -0.0166,  0.0186, -0.0221,-26.00, 999.9
2194,151204.200,  45.834452988,-110.935118876, 2359.0343,  1,  5,  0.0269,  0.0289,  0.0583, -0.0165,  0.0185, -0.0219,-25.80, 999.9
2194,151204.400,  45.834449652,-110.935125036, 2359.3747,  1,  5,  0.0267,  0.0287,  0.0579, -0.0164,  0.0184, -0.0218,-25.60, 999.9
2194,151204.600,  45.834446284,-110.935131192, 2359.7242,  1,  5,  0.0266,  0.0285,  0.0575, -0.0163,  0.0182, -0.0216,-25.40, 999.9
2194,151204.800,  45.834442899,-110.935137443, 2360.0701,  1,  5,  0.0264,  0.0283,  0.0571, -0.0161,  0.0181, -0.0215,-25.20, 999.9
2194,151205.000,  45.834439522,-110.935143725, 2360.4125,  1,  5,  0.0262,  0.0281,  0.0567, -0.0160,  0.0180, -0.0213,-25.00, 999.9
2194,151205.200,  45.834436131,-110.935149908, 2360.7600,  1,  5,  0.0260,  0.0279,  0.0563, -0.0159,  0.0179, -0.0212,-24.80, 999.9
2194,151205.400,  45.834432764,-110.935156088, 2361.0907,  1,  5,  0.0258,  0.0277,  0.0559, -0.0158,  0.0177, -0.0210,-24.60, 999.9
2194,151205.600,  45.834429397,-110.935162183, 2361.4295,  1,  5,  0.0256,  0.0275,  0.0555, -0.0157,  0.0176, -0.0209,-24.40, 999.9
2194,151205.800,  45.834425930,-110.935168344, 2361.7743,  1,  5,  0.0254,  0.0273,  0.0551, -0.0156,  0.0175, -0.0207,-24.20, 999.9
2194,151206.000,  45.834422415,-110.935174586, 2362.1220,  1,  5,  0.0253,  0.0271,  0.0547, -0.0154,  0.0173, -0.0206,-24.00, 999.9
2194,151206.200,  45.834418927,-110.935180792, 2362.4625,  1,  5,  0.0251,  0.0269,  0.0543, -0.0153,  0.0172, -0.0204,-23.80, 999.9
2194,151206.400,  45.834415473,-110.935187034, 2362.8116,  1,  5,  0.0249,  0.0267,  0.0539, -0.0152,  0.0171, -0.0203,-23.60, 999.9
2194,151206.600,  45.834412081,-110.935193330, 2363.1580,  1,  5,  0.0247,  0.0265,  0.0535, -0.0151,  0.0170, -0.0201,-23.40, 999.9
2194,151206.800,  45.834408670,-110.935199737, 2363.5061,  1,  5,  0.0245,  0.0263,  0.0531, -0.0150,  0.0168, -0.0200,-23.20, 999.9
2194,151207.000,  45.834405232,-110.935206236, 2363.8443,  1,  5,  0.0243,  0.0261,  0.0527, -0.0149,  0.0167, -0.0198,-23.00, 999.9
2194,151207.200,  45.834401761,-110.935212611, 2364.1957,  1,  5,  0.0241,  0.0259,  0.0523, -0.0148,  0.0166, -0.0197,-22.80, 999.9
2194,151207.400,  45.834398387,-110.935219014, 2364.5303,  1,  5,  0.0239,  0.0257,  0.0519, -0.0146,  0.0164, -0.0195,-22.60, 999.9
2194,151207.600,  45.834395012,-110.935225281, 2364.8784,  1,  5,  0.0238,  0.0255,  0.0515, -0.0145,  0.0163, -0.0194,-22.40, 999.9
2194,151207.800,  45.834391685,-110.935231573, 2365.2184,  1,  5,  0.0236,  0.0253,  0.0510, -0.0144,  0.0162, -0.0192,-22.20, 999.9
2194,151208.000,  45.834388394,-110.935237840, 2365.5591,  1,  5,  0.0234,  0.0251,  0.0506, -0.0143,  0.0161, -0.0191,-22.00, 999.9
2194,151208.200,  45.834385045,-110.935244139, 2365.8969,  1,  5,  0.0232,  0.0249,  0.0502, -0.0142,  0.0159, -0.0189,-21.80, 999.9
2194,151208.400,  45.834381704,-110.935250481, 2366.2382,  1,  5,  0.0230,  0.0247,  0.0498, -0.0140,  0.0158, -0.0187,-21.60, 999.9
2194,151208.600,  45.834378372,-110.935256764, 2366.5863,  1,  5,  0.0228,  0.0245,  0.0494, -0.0139,  0.0157, -0.0186,-21.40, 999.9
2194,151208.800,  45.834375089,-110.935263063, 2366.9249,  1,  5,  0.0226,  0.0243,  0.0490, -0.0138,  0.0155, -0.0184,-21.20, 999.9
2194,151209.000,  45.834371739,-110.935269358, 2367.2685,  1,  5,  0.0225,  0.0241,  0.0486, -0.0137,  0.0154, -0.0183,-21.00, 999.9
2194,151209.200,  45.834368449,-110.935275548, 2367.6062,  1,  5,  0.0223,  0.0239,  0.0482, -0.0136,  0.0153, -0.0181,-20.80, 999.9
2194,151209.400,  45.834365202,-110.935281936, 2367.9261,  1,  5,  0.0221,  0.0237,  0.0478, -0.0135,  0.0151, -0.0180,-20.60, 999.9
2194,151209.600,  45.834361828,-110.935288194, 2368.2722,  1,  5,  0.0219,  0.0235,  0.0474, -0.0133,  0.0150, -0.0178,-20.40, 999.9
2194,151209.800,  45.834358327,-110.935294497, 2368.6142,  1,  5,  0.0217,  0.0233,  0.0470, -0.0132,  0.0149, -0.0177,-20.20, 999.9
2194,151210.000,  45.834354835,-110.935300697, 2368.9591,  1,  5,  0.0215,  0.0230,  0.0466, -0.0131,  0.0147, -0.0175,-20.00, 999.9
2194,151210.200,  45.834351362,-110.935306853, 2369.2996,  1,  5,  0.0213,  0.0228,  0.0462, -0.0130,  0.0146, -0.0174,-19.80, 999.9
2194,151210.400,  45.834347974,-110.935313037, 2369.6334,  1,  5,  0.0211,  0.0226,  0.0458, -0.0129,  0.0145, -0.0172,-19.60, 999.9
2194,151210.600,  45.834344589,-110.935319204, 2369.9865,  1,  5,  0.0210,  0.0224,  0.0454, -0.0128,  0.0144, -0.0171,-19.40, 999.9
2194,151210.800,  45.834341215,-110.935325311, 2370.3321,  1,  5,  0.0208,  0.0222,  0.0450, -0.0126,  0.0142, -0.0169,-19.20, 999.9
2194,151211.000,  45.834337830,-110.935331479, 2370.6645,  1,  5,  0.0206,  0.0220,  0.0446, -0.0125,  0.0141, -0.0168,-19.00, 999.9
2194,151211.200,  45.834334461,-110.935337634, 2370.9986,  1,  5,  0.0204,  0.0218,  0.0442, -0.0124,  0.0140, -0.0166,-18.80, 999.9
2194,151211.400,  45.834331065,-110.935343897, 2371.3262,  1,  5,  0.0202,  0.0216,  0.0438, -0.0123,  0.0138, -0.0164,-18.60, 999.9
2194,151211.600,  45.834327636,-110.935350156, 2371.6660,  1,  5,  0.0200,  0.0214,  0.0434, -0.0122,  0.0137, -0.0163,-18.40, 999.9
2194,151211.800,  45.834324234,-110.935356431, 2372.0096,  1,  5,  0.0198,  0.0212,  0.0429, -0.0120,  0.0136, -0.0161,-18.20, 999.9
2194,151212.000,  45.834320902,-110.935362724, 2372.3477,  1,  5,  0.0196,  0.0210,  0.0425, -0.0119,  0.0134, -0.0160,-18.00, 999.9
2194,151212.200,  45.834317629,-110.935369072, 2372.6890,  1,  5,  0.0195,  0.0208,  0.0421, -0.0118,  0.0133, -0.0158,-17.80, 999.9
2194,151212.400,  45.834314410,-110.935375358, 2373.0257,  1,  5,  0.0193,  0.0206,  0.0417, -0.0117,  0.0132, -0.0157,-17.60, 999.9
2194,151212.600,  45.834311079,-110.935381609, 2373.3687,  1,  5,  0.0191,  0.0204,  0.0413, -0.0116,  0.0130, -0.0155,-17.40, 999.9
2194,151212.800,  45.834307665,-110.935387814, 2373.7167,  1,  5,  0.0189,  0.0202,  0.0409, -0.0114,  0.0129, -0.0154,-17.20, 999.9
2194,151213.000,  45.834304291,-110.935394092, 2374.0552,  1,  5,  0.0187,  0.0200,  0.0405, -0.0113,  0.0128, -0.0152,-17.00, 999.9
2194,151213.200,  45.834300888,-110.935400327, 2374.4063,  1,  5,  0.0185,  0.0198,  0.0401, -0.0112,  0.0126, -0.0150,-16.80, 999.9
2194,151213.400,  45.834297547,-110.935406536, 2374.7446,  1,  5,  0.0183,  0.0196,  0.0397, -0.0111,  0.0125, -0.0149,-16.60, 999.9
2194,151213.600,  45.834294226,-110.935412601, 2375.0846,  1,  5,  0.0181,  0.0194,  0.0393, -0.0110,  0.0124, -0.0147,-16.40, 999.9
2194,151213.800,  45.834290898,-110.935418726, 2375.4290,  1,  5,  0.0180,  0.0191,  0.0389, -0.0108,  0.0122, -0.0146,-16.20, 999.9
2194,151214.000,  45.834287552,-110.935424835, 2375.7715,  1,  5,  0.0178,  0.0189,  0.0385, -0.0107,  0.0121, -0.0144,-16.00, 999.9
2194,151214.200,  45.834284215,-110.935430973, 2376.1130,  1,  5,  0.0176,  0.0187,  0.0381, -0.0106,  0.0120, -0.0143,-15.80, 999.9
2194,151214.400,  45.834280902,-110.935437163, 2376.4553,  1,  5,  0.0174,  0.0185,  0.0377, -0.0105,  0.0118, -0.0141,-15.60, 999.9
2194,151214.600,  45.834277561,-110.935443301, 2376.8050,  1,  5,  0.0172,  0.0183,  0.0373, -0.0104,  0.0117, -0.0140,-15.40, 999.9
2194,151214.800,  45.834274223,-110.935449517, 2377.1552,  1,  5,  0.0170,  0.0181,  0.0369, -0.0102,  0.0116, -0.0138,-15.20, 999.9
2194,151215.000,  45.834270856,-110.935455766, 2377.4968,  1,  5,  0.0168,  0.0179,  0.0365, -0.0101,  0.0114, -0.0136,-15.00, 999.9
2194,151215.200,  45.834267462,-110.935462061, 2377.8364,  1,  5,  0.0166,  0.0177,  0.0360, -0.0100,  0.0113, -0.0135,-14.80, 999.9
2194,151215.400,  45.834264157,-110.935468340, 2378.1673,  1,  5,  0.0165,  0.0175,  0.0356, -0.0099,  0.0112, -0.0133,-14.60, 999.9
2194,151215.600,  45.834260765,-110.935474558, 2378.5105,  1,  5,  0.0163,  0.0173,  0.0352, -0.0098,  0.0110, -0.0132,-14.40, 999.9
2194,151215.800,  45.834257427,-110.935480799, 2378.8439,  1,  5,  0.0161,  0.0171,  0.0348, -0.0096,  0.0109, -0.0130,-14.20, 999.9
2194,151216.000,  45.834254075,-110.935487058, 2379.1946,  1,  5,  0.0159,  0.0169,  0.0344, -0.0095,  0.0108, -0.0129,-14.00, 999.9
2194,151216.200,  45.834250695,-110.935493289, 2379.5608,  1,  5,  0.0157,  0.0167,  0.0340, -0.0094,  0.0106, -0.0127,-13.80, 999.9
2194,151216.400,  45.834247310,-110.935499622, 2379.9198,  1,  5,  0.0155,  0.0165,  0.0336, -0.0093,  0.0105, -0.0126,-13.60, 999.9
2194,151216.600,  45.834244025,-110.935505726, 2380.2616,  1,  5,  0.0153,  0.0163,  0.0332, -0.0092,  0.0104, -0.0124,-13.40, 999.9
2194,151216.800,  45.834241083,-110.935511365, 2380.5479,  1,  5,  0.0152,  0.0161,  0.0328, -0.0090,  0.0102, -0.0122,-13.20, 999.9
2194,151217.000,  45.834238674,-110.935516064, 2380.7602,  1,  5,  0.0150,  0.0159,  0.0324, -0.0089,  0.0101, -0.0121,-13.00, 999.9
2194,151217.200,  45.834237045,-110.935519395, 2380.9239,  1,  5,  0.0148,  0.0157,  0.0320, -0.0088,  0.0100, -0.0119,-12.80, 999.9
2194,151217.400,  45.834236282,-110.935521327, 2381.1146,  1,  5,  0.0146,  0.0155,  0.0316, -0.0087,  0.0098, -0.0118,-12.60, 999.9
2194,151217.600,  45.834235889,-110.935522388, 2381.3972,  1,  5,  0.0144,  0.0152,  0.0312, -0.0085,  0.0097, -0.0116,-12.40, 999.9
2194,151217.800,  45.834235229,-110.935523931, 2381.7888,  1,  5,  0.0142,  0.0150,  0.0308, -0.0084,  0.0096, -0.0115,-12.20, 999.9
2194,151218.000,  45.834233944,-110.935526451, 2382.3011,  1,  5,  0.0141,  0.0148,  0.0304, -0.0083,  0.0094, -0.0113,-12.00, 999.9
2194,151218.200,  45.834232135,-110.935529781, 2382.8915,  1,  5,  0.0139,  0.0146,  0.0300, -0.0082,  0.0093, -0.0112,-11.80, 999.9
2194,151218.400,  45.834230064,-110.935533476, 2383.5040,  1,  5,  0.0137,  0.0144,  0.0296, -0.0081,  0.0091, -0.0110,-11.60, 999.9
2194,151218.600,  45.834227817,-110.935537285, 2384.1226,  1,  5,  0.0135,  0.0142,  0.0292, -0.0079,  0.0090, -0.0108,-11.40, 999.9
2194,151218.800,  45.834225544,-110.935541106, 2384.7456,  1,  5,  0.0133,  0.0140,  0.0288, -0.0078,  0.0089, -0.0107,-11.20, 999.9
2194,151219.000,  45.834223202,-110.935544842, 2385.3657,  1,  5,  0.0131,  0.0138,  0.0284, -0.0077,  0.0087, -0.0105,-11.00, 999.9
2194,151219.200,  45.834220927,-110.935548422, 2385.9802,  1,  5,  0.0130,  0.0136,  0.0280, -0.0076,  0.0086, -0.0104,-10.80, 999.9
2194,151219.400,  45.834218721,-110.935551967, 2386.5798,  1,  5,  0.0128,  0.0134,  0.0276, -0.0074,  0.0085, -0.0102,-10.60, 999.9
2194,151219.600,  45.834216538,-110.935555434, 2387.1790,  1,  5,  0.0126,  0.0132,  0.0272, -0.0073,  0.0083, -0.0101,-10.40, 999.9
2194,151219.800,  45.834214344,-110.935558902, 2387.7858,  1,  5,  0.0124,  0.0130,  0.0268, -0.0072,  0.0082, -0.0099,-10.20, 999.9
2194,151220.000,  45.834212242,-110.935562360, 2388.4004,  1,  5,  0.0122,  0.0128,  0.0264, -0.0071,  0.0081, -0.0098,-10.00, 999.9
2194,151220.200,  45.834210169,-110.935565892, 2388.9991,  1,  5,  0.0121,  0.0126,  0.0260, -0.0070,  0.0079, -0.0096, -9.80, 999.9
2194,151220.400,  45.834208142,-110.935569618, 2389.6027,  1,  5,  0.0119,  0.0124,  0.0256, -0.0068,  0.0078, -0.0094, -9.60, 999.9
2194,151220.600,  45.834206170,-110.935573239, 2390.2184,  1,  5,  0.0117,  0.0122,  0.0252, -0.0067,  0.0077, -0.0093, -9.40, 999.9
2194,151220.800,  45.834204185,-110.935577001, 2390.8301,  1,  5,  0.0115,  0.0120,  0.0249, -0.0066,  0.0075, -0.0091, -9.20, 999.9
2194,151221.000,  45.834202193,-110.935580726, 2391.4426,  1,  5,  0.0114,  0.0118,  0.0245, -0.0065,  0.0074, -0.0090, -9.00, 999.9
2194,151221.200,  45.834200245,-110.935584450, 2392.0583,  1,  5,  0.0112,  0.0116,  0.0241, -0.0063,  0.0073, -0.0088, -8.80, 999.9
2194,151221.400,  45.834198362,-110.935588289, 2392.6646,  1,  5,  0.0110,  0.0114,  0.0237, -0.0062,  0.0071, -0.0087, -8.60, 999.9
2194,151221.600,  45.834196416,-110.935592040, 2393.2719,  1,  5,  0.0108,  0.0112,  0.0233, -0.0061,  0.0070, -0.0085, -8.40, 999.9
2194,151221.800,  45.834194490,-110.935595722, 2393.8722,  1,  5,  0.0107,  0.0110,  0.0229, -0.0060,  0.0068, -0.0084, -8.20, 999.9
2194,151222.000,  45.834192529,-110.935599360, 2394.4886,  1,  5,  0.0105,  0.0108,  0.0226, -0.0059,  0.0067, -0.0082, -8.00, 999.9
2194,151222.200,  45.834190531,-110.935603048, 2395.0944,  1,  5,  0.0103,  0.0106,  0.0222, -0.0057,  0.0066, -0.0081, -7.80, 999.9
2194,151222.400,  45.834188441,-110.935606918, 2395.6852,  1,  5,  0.0102,  0.0104,  0.0218, -0.0056,  0.0064, -0.0079, -7.60, 999.9
2194,151222.600,  45.834186322,-110.935610695, 2396.2865,  1,  5,  0.0100,  0.0103,  0.0214, -0.0055,  0.0063, -0.0078, -7.40, 999.9
2194,151222.800,  45.834184167,-110.935614466, 2396.9007,  1,  5,  0.0098,  0.0101,  0.0211, -0.0054,  0.0062, -0.0076, -7.20, 999.9
2194,151223.000,  45.834182092,-110.935618266, 2397.5039,  1,  5,  0.0097,  0.0099,  0.0207, -0.0052,  0.0060, -0.0075, -7.00, 999.9
2194,151223.200,  45.834180090,-110.935622075, 2398.1038,  1,  5,  0.0095,  0.0097,  0.0203, -0.0051,  0.0059, -0.0073, -6.80, 999.9
2194,151223.400,  45.834178117,-110.935625885, 2398.7087,  1,  5,  0.0093,  0.0095,  0.0200, -0.0050,  0.0058, -0.0072, -6.60, 999.9
2194,151223.600,  45.834176163,-110.935629699, 2399.3180,  1,  5,  0.0092,  0.0093,  0.0196, -0.0049,  0.0057, -0.0070, -6.40, 999.9
2194,151223.800,  45.834174150,-110.935633358, 2399.9331,  1,  5,  0.0090,  0.0091,  0.0193, -0.0048,  0.0055, -0.0069, -6.20, 999.9
2194,151224.000,  45.834172136,-110.935637144, 2400.5358,  1,  5,  0.0089,  0.0090,  0.0189, -0.0046,  0.0054, -0.0067, -6.00, 999.9
2194,151224.200,  45.834170172,-110.935640864, 2401.1382,  1,  5,  0.0087,  0.0088,  0.0186, -0.0045,  0.0053, -0.0066, -5.80, 999.9
2194,151224.400,  45.834168251,-110.935644541, 2401.7213,  1,  5,  0.0086,  0.0086,  0.0182, -0.0044,  0.0051, -0.0065, -5.60, 999.9
2194,151224.600,  45.834166345,-110.935648171, 2402.3254,  1,  5,  0.0084,  0.0084,  0.0179, -0.0043,  0.0050, -0.0063, -5.40, 999.9
2194,151224.800,  45.834164450,-110.935651826, 2402.9325,  1,  5,  0.0083,  0.0083,  0.0176, -0.0042,  0.0049, -0.0062, -5.20, 999.9
2194,151225.000,  45.834162463,-110.935655422, 2403.5417,  1,  5,  0.0081,  0.0081,  0.0172, -0.0041,  0.0048, -0.0060, -5.00, 999.9
2194,151225.200,  45.834160520,-110.935659027, 2404.1462,  1,  5,  0.0080,  0.0079,  0.0169, -0.0040,  0.0046, -0.0059, -4.80, 999.9
2194,151225.400,  45.834158592,-110.935662669, 2404.7496,  1,  5,  0.0079,  0.0078,  0.0166, -0.0038,  0.0045, -0.0058, -4.60, 999.9
2194,151225.600,  45.834156704,-110.935666205, 2405.3550,  1,  5,  0.0077,  0.0076,  0.0163, -0.0037,  0.0044, -0.0056, -4.40, 999.9
2194,151225.800,  45.834154749,-110.935669821, 2405.9553,  1,  5,  0.0076,  0.0074,  0.0160, -0.0036,  0.0043, -0.0055, -4.20, 999.9
2194,151226.000,  45.834152819,-110.935673505, 2406.5641,  1,  5,  0.0075,  0.0073,  0.0157, -0.0035,  0.0042, -0.0054, -4.00, 999.9
2194,151226.200,  45.834150840,-110.935677071, 2407.1644,  1,  5,  0.0074,  0.0071,  0.0154, -0.0034,  0.0041, -0.0053, -3.80, 999.9
2194,151226.400,  45.834148895,-110.935680787, 2407.7567,  1,  5,  0.0072,  0.0070,  0.0152, -0.0033,  0.0039, -0.0051, -3.60, 999.9
2194,151226.600,  45.834146899,-110.935684352, 2408.3646,  1,  5,  0.0071,  0.0068,  0.0149, -0.0032,  0.0038, -0.0050, -3.40, 999.9
2194,151226.800,  45.834144892,-110.935687946, 2408.9686,  1,  5,  0.0070,  0.0067,  0.0146, -0.0031,  0.0037, -0.0049, -3.20, 999.9
2194,151227.000,  45.834142927,-110.935691608, 2409.5637,  1,  5,  0.0069,  0.0066,  0.0144, -0.0030,  0.0036, -0.0048, -3.00, 999.9
2194,151227.200,  45.834140875,-110.935695300, 2410.1745,  1,  5,  0.0068,  0.0065,  0.0142, -0.0029,  0.0035, -0.0047, -2.80, 999.9
2194,151227.400,  45.834138909,-110.935698980, 2410.7795,  1,  5,  0.0067,  0.0063,  0.0139, -0.0028,  0.0034, -0.0046, -2.60, 999.9
2194,151227.600,  45.834136920,-110.935702597, 2411.3873,  1,  5,  0.0066,  0.0062,  0.0137, -0.0027,  0.0033, -0.0045, -2.40, 999.9
2194,151227.800,  45.834134896,-110.935706156, 2411.9944,  1,  5,  0.0065,  0.0061,  0.0135, -0.0026,  0.0033, -0.0044, -2.20, 999.9
2194,151228.000,  45.834132990,-110.935709729, 2412.5874,  1,  5,  0.0065,  0.0060,  0.0134, -0.0026,  0.0032, -0.0043, -2.00, 999.9
2194,151228.200,  45.834131032,-110.935713258, 2413.1930,  1,  5,  0.0064,  0.0059,  0.0132, -0.0025,  0.0031, -0.0043, -1.80, 999.9
2194,151228.400,  45.834129136,-110.935716912, 2413.7813,  1,  5,  0.0063,  0.0059,  0.0130, -0.0024,  0.0030, -0.0042, -1.60, 999.9
2194,151228.600,  45.834127201,-110.935720464, 2414.3788,  1,  5,  0.0063,  0.0058,  0.0129, -0.0024,  0.0030, -0.0041, -1.40, 999.9
2194,151228.800,  45.834125288,-110.935724016, 2414.9799,  1,  5,  0.0062,  0.0057,  0.0128, -0.0023,  0.0029, -0.0041, -1.20, 999.9
2194,151229.000,  45.834123396,-110.935727478, 2415.5801,  1,  5,  0.0062,  0.0057,  0.0127, -0.0023,  0.0029, -0.0040, -1.00, 999.9
2194,151229.200,  45.834121509,-110.935731043, 2416.1747,  1,  5,  0.0062,  0.0056,  0.0126, -0.0022,  0.0029, -0.0040, -0.80, 999.9
2194,151229.400,  45.834119580,-110.935734609, 2416.7719,  1,  5,  0.0061,  0.0056,  0.0126, -0.0022,  0.0028, -0.0040, -0.60, 999.9
2194,151229.600,  45.834117637,-110.935738034, 2417.3747,  1,  5,  0.0061,  0.0056,  0.0126, -0.0022,  0.0028, -0.0040, -0.40, 999.9
2194,151229.800,  45.834115719,-110.935741621, 2417.9756,  1,  5,  0.0062,  0.0056,  0.0128, -0.0022,  0.0029, -0.0041, -0.20, 999.9
2194,151230.000,  45.834113716,-110.935745152, 2418.5744,  1,  5,  0.0063,  0.0057,  0.0131, -0.0023,  0.0030, -0.0042,  0.00, 999.9
2194,151230.200,  45.834111880,-110.935749279, 2419.1743,  1,  5,  0.0307,  0.0331,  0.0659, -0.0190,  0.0212, -0.0250,-29.80, 999.9
2194,151230.400,  45.834109931,-110.935752903, 2419.7678,  1,  5,  0.0305,  0.0329,  0.0655, -0.0189,  0.0211, -0.0248,-29.60, 999.9
2194,151230.600,  45.834107948,-110.935756437, 2420.3692,  1,  5,  0.0303,  0.0327,  0.0651, -0.0187,  0.0210, -0.0247,-29.40, 999.9
2194,151230.800,  45.834106016,-110.935760096, 2420.9619,  1,  5,  0.0301,  0.0325,  0.0647, -0.0186,  0.0208, -0.0245,-29.20, 999.9
2194,151231.000,  45.834104064,-110.935763773, 2421.5617,  1,  5,  0.0299,  0.0323,  0.0643, -0.0185,  0.0207, -0.0244,-29.00, 999.9
2194,151231.200,  45.834102083,-110.935767487, 2422.1605,  1,  5,  0.0297,  0.0321,  0.0639, -0.0184,  0.0206, -0.0243,-28.80, 999.9
2194,151231.400,  45.834100087,-110.935771219, 2422.7554,  1,  5,  0.0296,  0.0319,  0.0635, -0.0183,  0.0205, -0.0241,-28.60, 999.9
2194,151231.600,  45.834098024,-110.935774865, 2423.3591,  1,  5,  0.0294,  0.0317,  0.0631, -0.0182,  0.0203, -0.0240,-28.40, 999.9
2194,151231.800,  45.834095930,-110.935778570, 2423.9655,  1,  5,  0.0292,  0.0315,  0.0627, -0.0181,  0.0202, -0.0238,-28.20, 999.9
2194,151232.000,  45.834093849,-110.935782170, 2424.5631,  1,  5,  0.0290,  0.0313,  0.0623, -0.0179,  0.0201, -0.0237,-28.00, 999.9
2194,151232.200,  45.834091827,-110.935785803, 2425.1515,  1,  5,  0.0288,  0.0311,  0.0619, -0.0178,  0.0199, -0.0235,-27.80, 999.9
2194,151232.400,  45.834089853,-110.935789522, 2425.7310,  1,  5,  0.0286,  0.0309,  0.0615, -0.0177,  0.0198, -0.0234,-27.60, 999.9
2194,151232.600,  45.834087859,-110.935793031, 2426.3174,  1,  5,  0.0284,  0.0307,  0.0611, -0.0176,  0.0197, -0.0232,-27.40, 999.9
2194,151232.800,  45.834085813,-110.935796666, 2426.9044,  1,  5,  0.0283,  0.0305,  0.0607, -0.0175,  0.0196, -0.0231,-27.20, 999.9
2194,151233.000,  45.834083645,-110.935800326, 2427.5015,  1,  5,  0.0281,  0.0303,  0.0603, -0.0174,  0.0194, -0.0229,-27.00, 999.9
2194,151233.200,  45.834081463,-110.935804143, 2428.1166,  1,  5,  0.0279,  0.0301,  0.0599, -0.0172,  0.0193, -0.0228,-26.80, 999.9
2194,151233.400,  45.834079269,-110.935808106, 2428.7567,  1,  5,  0.0277,  0.0299,  0.0595, -0.0171,  0.0192, -0.0226,-26.60, 999.9
2194,151233.600,  45.834077084,-110.935812155, 2429.4057,  1,  5,  0.0275,  0.0297,  0.0591, -0.0170,  0.0191, -0.0224,-26.40, 999.9
2194,151233.800,  45.834075089,-110.935816215, 2430.0058,  1,  5,  0.0273,  0.0295,  0.0587, -0.0169,  0.0189, -0.0223,-26.20, 999.9
2194,151234.000,  45.834073389,-110.935819779, 2430.5046,  1,  5,  0.0271,  0.0293,  0.0584, -0.0168,  0.0188, -0.0221,-26.00, 999.9
2194,151234.200,  45.834072084,-110.935822607, 2430.8767,  1,  5,  0.0270,  0.0291,  0.0580, -0.0167,  0.0187, -0.0220,-25.80, 999.9
2194,151234.400,  45.834071085,-110.935824799, 2431.1279,  1,  5,  0.0268,  0.0289,  0.0576, -0.0166,  0.0185, -0.0218,-25.60, 999.9
2194,151234.600,  45.834070097,-110.935826861, 2431.3136,  1,  5,  0.0266,  0.0287,  0.0572, -0.0164,  0.0184, -0.0217,-25.40, 999.9
2194,151234.800,  45.834068640,-110.935829672, 2431.5139,  1,  5,  0.0264,  0.0285,  0.0568, -0.0163,  0.0183, -0.0215,-25.20, 999.9
2194,151235.000,  45.834066280,-110.935833793, 2431.7764,  1,  5,  0.0262,  0.0283,  0.0564, -0.0162,  0.0182, -0.0214,-25.00, 999.9
2194,151235.200,  45.834063063,-110.935839258, 2432.1009,  1,  5,  0.0260,  0.0280,  0.0560, -0.0161,  0.0180, -0.0212,-24.80, 999.9
2194,151235.400,  45.834059334,-110.935845660, 2432.4535,  1,  5,  0.0258,  0.0278,  0.0556, -0.0160,  0.0179, -0.0211,-24.60, 999.9
2194,151235.600,  45.834055392,-110.935852333, 2432.8247,  1,  5,  0.0257,  0.0276,  0.0552, -0.0159,  0.0178, -0.0209,-24.40, 999.9
2194,151235.800,  45.834051496,-110.935859014, 2433.1959,  1,  5,  0.0255,  0.0274,  0.0548, -0.0157,  0.0176, -0.0208,-24.20, 999.9
2194,151236.000,  45.834047763,-110.935865467, 2433.5596,  1,  5,  0.0253,  0.0272,  0.0544, -0.0156,  0.0175, -0.0206,-24.00, 999.9
2194,151236.200,  45.834044245,-110.935871711, 2433.9201,  1,  5,  0.0251,  0.0270,  0.0540, -0.0155,  0.0174, -0.0205,-23.80, 999.9
2194,151236.400,  45.834040945,-110.935877856, 2434.2629,  1,  5,  0.0249,  0.0268,  0.0536, -0.0154,  0.0172, -0.0203,-23.60, 999.9
2194,151236.600,  45.834037740,-110.935883825, 2434.6181,  1,  5,  0.0247,  0.0266,  0.0532, -0.0153,  0.0171, -0.0202,-23.40, 999.9
2194,151236.800,  45.834034620,-110.935889792, 2434.9754,  1,  5,  0.0245,  0.0264,  0.0528, -0.0151,  0.0170, -0.0200,-23.20, 999.9
2194,151237.000,  45.834031582,-110.935895871, 2435.3234,  1,  5,  0.0243,  0.0262,  0.0524, -0.0150,  0.0169, -0.0199,-23.00, 999.9
2194,151237.200,  45.834028492,-110.935901846, 2435.6843,  1,  5,  0.0242,  0.0260,  0.0520, -0.0149,  0.0167, -0.0197,-22.80, 999.9
2194,151237.400,  45.834025439,-110.935907945, 2436.0396,  1,  5,  0.0240,  0.0258,  0.0516, -0.0148,  0.0166, -0.0196,-22.60, 999.9
2194,151237.600,  45.834022344,-110.935913950, 2436.4055,  1,  5,  0.0238,  0.0256,  0.0512, -0.0147,  0.0165, -0.0194,-22.40, 999.9
2194,151237.800,  45.834019225,-110.935920016, 2436.7693,  1,  5,  0.0236,  0.0254,  0.0508, -0.0146,  0.0163, -0.0193,-22.20, 999.9
2194,151238.000,  45.834016051,-110.935926048, 2437.1354,  1,  5,  0.0234,  0.0252,  0.0504, -0.0144,  0.0162, -0.0191,-22.00, 999.9
2194,151238.200,  45.834012849,-110.935932031, 2437.4970,  1,  5,  0.0232,  0.0250,  0.0499, -0.0143,  0.0161, -0.0190,-21.80, 999.9
2194,151238.400,  45.834009717,-110.935938040, 2437.8538,  1,  5,  0.0230,  0.0248,  0.0495, -0.0142,  0.0159, -0.0188,-21.60, 999.9
2194,151238.600,  45.834006481,-110.935943858, 2438.2171,  1,  5,  0.0228,  0.0246,  0.0491, -0.0141,  0.0158, -0.0186,-21.40, 999.9
2194,151238.800,  45.834003182,-110.935949685, 2438.5788,  1,  5,  0.0227,  0.0244,  0.0487, -0.0140,  0.0157, -0.0185,-21.20, 999.9
2194,151239.000,  45.833999967,-110.935955696, 2438.9340,  1,  5,  0.0225,  0.0242,  0.0483, -0.0138,  0.0155, -0.0183,-21.00, 999.9
2194,151239.200,  45.833996718,-110.935961699, 2439.2926,  1,  5,  0.0223,  0.0240,  0.0479, -0.0137,  0.0154, -0.0182,-20.80, 999.9
2194,151239.400,  45.833993453,-110.935967720, 2439.6491,  1,  5,  0.0221,  0.0238,  0.0475, -0.0136,  0.0153, -0.0180,-20.60, 999.9
2194,151239.600,  45.833990129,-110.935973645, 2440.0202,  1,  5,  0.0219,  0.0236,  0.0471, -0.0135,  0.0152, -0.0179,-20.40, 999.9
2194,151239.800,  45.833986842,-110.935979752, 2440.3804,  1,  5,  0.0217,  0.0234,  0.0467, -0.0134,  0.0150, -0.0177,-20.20, 999.9
2194,151240.000,  45.833983581,-110.935985806, 2440.7435,  1,  5,  0.0215,  0.0231,  0.0463, -0.0133,  0.0149, -0.0176,-20.00, 999.9
2194,151240.200,  45.833980301,-110.935991890, 2441.1028,  1,  5,  0.0213,  0.0229,  0.0459, -0.0131,  0.0148, -0.0174,-19.80, 999.9
2194,151240.400,  45.833977010,-110.935998006, 2441.4639,  1,  5,  0.0212,  0.0227,  0.0455, -0.0130,  0.0146, -0.0173,-19.60, 999.9
2194,151240.600,  45.833973706,-110.936004123, 2441.8296,  1,  5,  0.0210,  0.0225,  0.0451, -0.0129,  0.0145, -0.0171,-19.40, 999.9
2194,151240.800,  45.833970398,-110.936010344, 2442.1931,  1,  5,  0.0208,  0.0223,  0.0447, -0.0128,  0.0144, -0.0170,-19.20, 999.9
2194,151241.000,  45.833967008,-110.936016429, 2442.5635,  1,  5,  0.0206,  0.0221,  0.0443, -0.0127,  0.0142, -0.0168,-19.00, 999.9
2194,151241.200,  45.833963664,-110.936022670, 2442.9314,  1,  5,  0.0204,  0.0219,  0.0439, -0.0125,  0.0141, -0.0166,-18.80, 999.9
2194,151241.400,  45.833960312,-110.936028893, 2443.2850,  1,  5,  0.0202,  0.0217,  0.0435, -0.0124,  0.0140, -0.0165,-18.60, 999.9
2194,151241.600,  45.833956973,-110.936034979, 2443.6485,  1,  5,  0.0200,  0.0215,  0.0431, -0.0123,  0.0138, -0.0163,-18.40, 999.9
2194,151241.800,  45.833953627,-110.936041093, 2444.0101,  1,  5,  0.0198,  0.0213,  0.0427, -0.0122,  0.0137, -0.0162,-18.20, 999.9
2194,151242.000,  45.833950312,-110.936047287, 2444.3759,  1,  5,  0.0197,  0.0211,  0.0423, -0.0121,  0.0136, -0.0160,-18.00, 999.9
2194,151242.200,  45.833946930,-110.936053482, 2444.7398,  1,  5,  0.0195,  0.0209,  0.0419, -0.0119,  0.0134, -0.0159,-17.80, 999.9
2194,151242.400,  45.833943625,-110.936059693, 2445.0982,  1,  5,  0.0193,  0.0207,  0.0415, -0.0118,  0.0133, -0.0157,-17.60, 999.9
2194,151242.600,  45.833940263,-110.936065869, 2445.4675,  1,  5,  0.0191,  0.0205,  0.0411, -0.0117,  0.0132, -0.0156,-17.40, 999.9
2194,151242.800,  45.833936937,-110.936071923, 2445.8352,  1,  5,  0.0189,  0.0203,  0.0407, -0.0116,  0.0130, -0.0154,-17.20, 999.9
2194,151243.000,  45.833933647,-110.936078105, 2446.2030,  1,  5,  0.0187,  0.0201,  0.0403, -0.0114,  0.0129, -0.0152,-17.00, 999.9
2194,151243.200,  45.833930378,-110.936084190, 2446.5663,  1,  5,  0.0185,  0.0198,  0.0399, -0.0113,  0.0128, -0.0151,-16.80, 999.9
2194,151243.400,  45.833927110,-110.936090407, 2446.9232,  1,  5,  0.0183,  0.0196,  0.0395, -0.0112,  0.0126, -0.0149,-16.60, 999.9
2194,151243.600,  45.833923822,-110.936096463, 2447.2960,  1,  5,  0.0182,  0.0194,  0.0391, -0.0111,  0.0125, -0.0148,-16.40, 999.9
2194,151243.800,  45.833920536,-110.936102551, 2447.6570,  1,  5,  0.0180,  0.0192,  0.0387, -0.0110,  0.0124, -0.0146,-16.20, 999.9
2194,151244.000,  45.833917183,-110.936108642, 2448.0290,  1,  5,  0.0178,  0.0190,  0.0383, -0.0108,  0.0122, -0.0145,-16.00, 999.9
2194,151244.200,  45.833913856,-110.936114695, 2448.3913,  1,  5,  0.0176,  0.0188,  0.0379, -0.0107,  0.0121, -0.0143,-15.80, 999.9
2194,151244.400,  45.833910576,-110.936120883, 2448.7578,  1,  5,  0.0174,  0.0186,  0.0375, -0.0106,  0.0120, -0.0142,-15.60, 999.9
2194,151244.600,  45.833907216,-110.936126869, 2449.1232,  1,  5,  0.0172,  0.0184,  0.0371, -0.0105,  0.0118, -0.0140,-15.40, 999.9
2194,151244.800,  45.833903909,-110.936132903, 2449.4900,  1,  5,  0.0170,  0.0182,  0.0366, -0.0104,  0.0117, -0.0138,-15.20, 999.9
2194,151245.000,  45.833900602,-110.936138932, 2449.8471,  1,  5,  0.0169,  0.0180,  0.0362, -0.0102,  0.0115, -0.0137,-15.00, 999.9
2194,151245.200,  45.833897368,-110.936145106, 2450.2129,  1,  5,  0.0167,  0.0178,  0.0358, -0.0101,  0.0114, -0.0135,-14.80, 999.9
2194,151245.400,  45.833894089,-110.936151228, 2450.5767,  1,  5,  0.0165,  0.0176,  0.0354, -0.0100,  0.0113, -0.0134,-14.60, 999.9
2194,151245.600,  45.833890798,-110.936157225, 2450.9505,  1,  5,  0.0163,  0.0174,  0.0350, -0.0099,  0.0111, -0.0132,-14.40, 999.9
2194,151245.800,  45.833887530,-110.936163290, 2451.3201,  1,  5,  0.0161,  0.0172,  0.0346, -0.0097,  0.0110, -0.0131,-14.20, 999.9
2194,151246.000,  45.833884211,-110.936169327, 2451.6898,  1,  5,  0.0159,  0.0170,  0.0342, -0.0096,  0.0109, -0.0129,-14.00, 999.9
2194,151246.200,  45.833880879,-110.936175320, 2452.0579,  1,  5,  0.0157,  0.0168,  0.0338, -0.0095,  0.0107, -0.0127,-13.80, 999.9
2194,151246.400,  45.833877627,-110.936181447, 2452.4139,  1,  5,  0.0155,  0.0165,  0.0334, -0.0094,  0.0106, -0.0126,-13.60, 999.9
2194,151246.600,  45.833874310,-110.936187381, 2452.7823,  1,  5,  0.0154,  0.0163,  0.0330, -0.0093,  0.0105, -0.0124,-13.40, 999.9
2194,151246.800,  45.833870996,-110.936193414, 2453.1594,  1,  5,  0.0152,  0.0161,  0.0326, -0.0091,  0.0103, -0.0123,-13.20, 999.9
2194,151247.000,  45.833867732,-110.936199527, 2453.5240,  1,  5,  0.0150,  0.0159,  0.0322, -0.0090,  0.0102, -0.0121,-13.00, 999.9
2194,151247.200,  45.833864456,-110.936205623, 2453.8950,  1,  5,  0.0148,  0.0157,  0.0318, -0.0089,  0.0101, -0.0120,-12.80, 999.9
2194,151247.400,  45.833861207,-110.936211764, 2454.2524,  1,  5,  0.0146,  0.0155,  0.0314, -0.0088,  0.0099, -0.0118,-12.60, 999.9
2194,151247.600,  45.833857926,-110.936217915, 2454.6157,  1,  5,  0.0144,  0.0153,  0.0310, -0.0086,  0.0098, -0.0116,-12.40, 999.9
2194,151247.800,  45.833854606,-110.936224144, 2454.9835,  1,  5,  0.0143,  0.0151,  0.0306, -0.0085,  0.0096, -0.0115,-12.20, 999.9
2194,151248.000,  45.833851288,-110.936230393, 2455.3463,  1,  5,  0.0141,  0.0149,  0.0302, -0.0084,  0.0095, -0.0113,-12.00, 999.9
2194,151248.200,  45.833847930,-110.936236644, 2455.7127,  1,  5,  0.0139,  0.0147,  0.0298, -0.0083,  0.0094, -0.0112,-11.80, 999.9
2194,151248.400,  45.833844612,-110.936242841, 2456.0697,  1,  5,  0.0137,  0.0145,  0.0294, -0.0081,  0.0092, -0.0110,-11.60, 999.9
2194,151248.600,  45.833841251,-110.936248936, 2456.4361,  1,  5,  0.0135,  0.0143,  0.0290, -0.0080,  0.0091, -0.0109,-11.40, 999.9
2194,151248.800,  45.833837894,-110.936255137, 2456.8014,  1,  5,  0.0133,  0.0141,  0.0286, -0.0079,  0.0090, -0.0107,-11.20, 999.9
2194,151249.000,  45.833834567,-110.936261383, 2457.1690,  1,  5,  0.0132,  0.0139,  0.0282, -0.0078,  0.0088, -0.0106,-11.00, 999.9
2194,151249.200,  45.833831248,-110.936267622, 2457.5373,  1,  5,  0.0130,  0.0137,  0.0278, -0.0077,  0.0087, -0.0104,-10.80, 999.9
2194,151249.400,  45.833827941,-110.936273903, 2457.9020,  1,  5,  0.0128,  0.0135,  0.0275, -0.0075,  0.0086, -0.0102,-10.60, 999.9
2194,151249.600,  45.833824642,-110.936280040, 2458.2601,  1,  5,  0.0126,  0.0133,  0.0271, -0.0074,  0.0084, -0.0101,-10.40, 999.9
2194,151249.800,  45.833821341,-110.936286153, 2458.6276,  1,  5,  0.0124,  0.0131,  0.0267, -0.0073,  0.0083, -0.0099,-10.20, 999.9
2194,151250.000,  45.833817974,-110.936292247, 2458.9949,  1,  5,  0.0123,  0.0129,  0.0263, -0.0072,  0.0081, -0.0098,-10.00, 999.9
2194,151250.200,  45.833814643,-110.936298294, 2459.3570,  1,  5,  0.0121,  0.0127,  0.0259, -0.0070,  0.0080, -0.0096, -9.80, 999.9
2194,151250.400,  45.833811331,-110.936304426, 2459.7135,  1,  5,  0.0119,  0.0125,  0.0255, -0.0069,  0.0079, -0.0095, -9.60, 999.9
2194,151250.600,  45.833808046,-110.936310483, 2460.0821,  1,  5,  0.0117,  0.0123,  0.0251, -0.0068,  0.0077, -0.0093, -9.40, 999.9
2194,151250.800,  45.833804744,-110.936316586, 2460.4499,  1,  5,  0.0116,  0.0121,  0.0247, -0.0067,  0.0076, -0.0092, -9.20, 999.9
2194,151251.000,  45.833801482,-110.936322697, 2460.8214,  1,  5,  0.0114,  0.0119,  0.0243, -0.0065,  0.0075, -0.0090, -9.00, 999.9
2194,151251.200,  45.833798263,-110.936328824, 2461.1764,  1,  5,  0.0112,  0.0117,  0.0240, -0.0064,  0.0073, -0.0088, -8.80, 999.9
2194,151251.400,  45.833795051,-110.936334856, 2461.5434,  1,  5,  0.0110,  0.0115,  0.0236, -0.0063,  0.0072, -0.0087, -8.60, 999.9
2194,151251.600,  45.833791808,-110.936340736, 2461.9116,  1,  5,  0.0109,  0.0113,  0.0232, -0.0062,  0.0071, -0.0085, -8.40, 999.9
2194,151251.800,  45.833788535,-110.936346679, 2462.2708,  1,  5,  0.0107,  0.0111,  0.0228, -0.0060,  0.0069, -0.0084, -8.20, 999.9
2194,151252.000,  45.833785257,-110.936352614, 2462.6360,  1,  5,  0.0105,  0.0109,  0.0224, -0.0059,  0.0068, -0.0082, -8.00, 999.9
2194,151252.200,  45.833782040,-110.936358542, 2463.0027,  1,  5,  0.0103,  0.0107,  0.0221, -0.0058,  0.0066, -0.0081, -7.80, 999.9
2194,151252.400,  45.833778896,-110.936364549, 2463.3653,  1,  5,  0.0102,  0.0105,  0.0217, -0.0057,  0.0065, -0.0079, -7.60, 999.9
2194,151252.600,  45.833775714,-110.936370572, 2463.7318,  1,  5,  0.0100,  0.0103,  0.0213, -0.0056,  0.0064, -0.0078, -7.40, 999.9
2194,151252.800,  45.833772497,-110.936376711, 2464.1007,  1,  5,  0.0098,  0.0101,  0.0210, -0.0054,  0.0062, -0.0076, -7.20, 999.9
2194,151253.000,  45.833769234,-110.936382908, 2464.4670,  1,  5,  0.0097,  0.0099,  0.0206, -0.0053,  0.0061, -0.0075, -7.00, 999.9
2194,151253.200,  45.833765934,-110.936389018, 2464.8263,  1,  5,  0.0095,  0.0097,  0.0202, -0.0052,  0.0060, -0.0073, -6.80, 999.9
2194,151253.400,  45.833762649,-110.936395117, 2465.2014,  1,  5,  0.0094,  0.0095,  0.0199, -0.0051,  0.0058, -0.0072, -6.60, 999.9
2194,151253.600,  45.833759308,-110.936401117, 2465.5648,  1,  5,  0.0092,  0.0094,  0.0195, -0.0049,  0.0057, -0.0070, -6.40, 999.9
2194,151253.800,  45.833755991,-110.936407137, 2465.9175,  1,  5,  0.0090,  0.0092,  0.0192, -0.0048,  0.0056, -0.0069, -6.20, 999.9
2194,151254.000,  45.833752656,-110.936413216, 2466.2826,  1,  5,  0.0089,  0.0090,  0.0188, -0.0047,  0.0055, -0.0068, -6.00, 999.9
2194,151254.200,  45.833749362,-110.936419196, 2466.6396,  1,  5,  0.0087,  0.0088,  0.0185, -0.0046,  0.0053, -0.0066, -5.80, 999.9
2194,151254.400,  45.833746060,-110.936425235, 2467.0097,  1,  5,  0.0086,  0.0086,  0.0181, -0.0045,  0.0052, -0.0065, -5.60, 999.9
2194,151254.600,  45.833742767,-110.936431290, 2467.3766,  1,  5,  0.0084,  0.0085,  0.0178, -0.0043,  0.0051, -0.0063, -5.40, 999.9
2194,151254.800,  45.833739435,-110.936437317, 2467.7414,  1,  5,  0.0083,  0.0083,  0.0175, -0.0042,  0.0049, -0.0062, -5.20, 999.9
2194,151255.000,  45.833736136,-110.936443358, 2468.1129,  1,  5,  0.0082,  0.0081,  0.0171, -0.0041,  0.0048, -0.0060, -5.00, 999.9
2194,151255.200,  45.833732806,-110.936449513, 2468.4771,  1,  5,  0.0080,  0.0079,  0.0168, -0.0040,  0.0047, -0.0059, -4.80, 999.9
2194,151255.400,  45.833729517,-110.936455658, 2468.8320,  1,  5,  0.0079,  0.0077,  0.0164, -0.0038,  0.0043, -0.0057, -4.60, 999.9
2194,151255.600,  45.833726243,-110.936461898, 2469.1813,  1,  6,  0.0077,  0.0066,  0.0149, -0.0033, -0.0022, -0.0052, -4.40, 999.9
2194,151255.800,  45.833722983,-110.936468016, 2469.5443,  1,  6,  0.0076,  0.0065,  0.0146, -0.0032, -0.0022, -0.0051, -4.20, 999.9
2194,151256.000,  45.833719665,-110.936474125, 2469.9158,  1,  6,  0.0075,  0.0063,  0.0144, -0.0032, -0.0021, -0.0050, -4.00, 999.9
2194,151256.200,  45.833716419,-110.936480161, 2470.2783,  1,  6,  0.0073,  0.0062,  0.0141, -0.0031, -0.0021, -0.0049, -3.80, 999.9
2194,151256.400,  45.833713185,-110.936486280, 2470.6366,  1,  6,  0.0072,  0.0061,  0.0139, -0.0030, -0.0021, -0.0048, -3.60, 999.9
2194,151256.600,  45.833709892,-110.936492410, 2471.0078,  1,  6,  0.0071,  0.0060,  0.0136, -0.0029, -0.0021, -0.0047, -3.40, 999.9
2194,151256.800,  45.833706619,-110.936498512, 2471.3745,  1,  6,  0.0070,  0.0059,  0.0134, -0.0028, -0.0021, -0.0046, -3.20, 999.9
2194,151257.000,  45.833703350,-110.936504632, 2471.7377,  1,  6,  0.0069,  0.0058,  0.0132, -0.0028, -0.0020, -0.0045, -3.00, 999.9
2194,151257.200,  45.833700045,-110.936510727, 2472.1076,  1,  6,  0.0068,  0.0057,  0.0130, -0.0027, -0.0020, -0.0044, -2.80, 999.9
2194,151257.400,  45.833696744,-110.936516946, 2472.4693,  1,  6,  0.0067,  0.0056,  0.0128, -0.0026, -0.0020, -0.0043, -2.60, 999.9
2194,151257.600,  45.833693448,-110.936523110, 2472.8342,  1,  6,  0.0066,  0.0055,  0.0126, -0.0025, -0.0020, -0.0043, -2.40, 999.9
2194,151257.800,  45.833690158,-110.936529308, 2473.2086,  1,  6,  0.0066,  0.0054,  0.0124, -0.0025, -0.0020, -0.0042, -2.20, 999.9
2194,151258.000,  45.833686780,-110.936535434, 2473.5801,  1,  6,  0.0065,  0.0054,  0.0123, -0.0024, -0.0020, -0.0041, -2.00, 999.9
2194,151258.200,  45.833683449,-110.936541640, 2473.9532,  1,  6,  0.0064,  0.0053,  0.0121, -0.0024, -0.0020, -0.0041, -1.80, 999.9
2194,151258.400,  45.833680136,-110.936547740, 2474.3106,  1,  6,  0.0064,  0.0052,  0.0120, -0.0023, -0.0020, -0.0040, -1.60, 999.9
2194,151258.600,  45.833676857,-110.936553835, 2474.6764,  1,  6,  0.0063,  0.0052,  0.0118, -0.0022, -0.0020, -0.0040, -1.40, 999.9
2194,151258.800,  45.833673589,-110.936560006, 2475.0334,  1,  6,  0.0062,  0.0048,  0.0113, -0.0021, -0.0032, -0.0039, -1.20, 999.9
2194,151259.000,  45.833670226,-110.936566066, 2475.4014,  1,  6,  0.0062,  0.0047,  0.0112, -0.0021, -0.0032, -0.0038, -1.00, 999.9
2194,151259.200,  45.833666915,-110.936572120, 2475.7680,  1,  6,  0.0062,  0.0047,  0.0111, -0.0021, -0.0032, -0.0038, -0.80, 999.9
2194,151259.400,  45.833663645,-110.936578245, 2476.1291,  1,  6,  0.0062,  0.0047,  0.0111, -0.0021, -0.0031, -0.0038, -0.60, 999.9
2194,151259.600,  45.833660315,-110.936584269, 2476.4924,  1,  6,  0.0061,  0.0047,  0.0111, -0.0020, -0.0032, -0.0038, -0.40, 999.9
2194,151259.800,  45.833657005,-110.936590340, 2476.8529,  1,  6,  0.0062,  0.0047,  0.0113, -0.0021, -0.0032, -0.0039, -0.20, 999.9
2194,151260.000,  45.833653690,-110.936596369, 2477.2168,  1,  6,  0.0063,  0.0047,  0.0115, -0.0021, -0.0033, -0.0040,  0.00, 999.9
2194,151260.200,  45.833650483,-110.936602544, 2477.6212,  1,  6,  0.0296,  0.0242,  0.0569, -0.0138, -0.0164, -0.0192,-29.80, 999.9
2194,151260.400,  45.833647208,-110.936608597, 2477.9763,  1,  6,  0.0295,  0.0240,  0.0566, -0.0137, -0.0163, -0.0191,-29.60, 999.9
