% ref pos   : 45.661215782,-111.045002487, 1495.4893
%  GPST        , latitude(deg),longitude(deg), height(m),  Q, ns,  sdn(m),  sde(m),  sdu(m), sdne(m), sdeu(m), sdun(m),age(s), ratio
-522,-259200.000, -90.000000000,   0.000000000,-6378137.0000,  5,  0,  0.0000,  0.0000,  0.0000,  0.0000,  0.0000,  0.0000,  0.00,   0.0
2185,328290.600,  45.834864187,-110.934318470, 2317.2110,  1,  6,  0.0377,  0.0228,  0.0675, -0.0100,  0.0255, -0.0364,-29.40,  68.5
2185,328290.800,  45.834864124,-110.934318212, 2317.2251,  1,  6,  0.0375,  0.0226,  0.0671, -0.0099,  0.0253, -0.0362,-29.20,  67.8
2185,328291.000,  45.834864084,-110.934318132, 2317.2391,  1,  6,  0.0373,  0.0225,  0.0666, -0.0099,  0.0252, -0.0359,-29.00,  67.1
2185,328291.200,  45.834864090,-110.934318119, 2317.2482,  1,  6,  0.0370,  0.0223,  0.0662, -0.0098,  0.0250, -0.0357,-28.80,  66.3
2185,328291.400,  45.834864107,-110.934318099, 2317.2529,  1,  6,  0.0368,  0.0222,  0.0658, -0.0097,  0.0248, -0.0355,-28.60,  65.6
2185,328291.600,  45.834864079,-110.934318023, 2317.2665,  1,  6,  0.0366,  0.0221,  0.0654, -0.0097,  0.0247, -0.0353,-28.40,  64.9
2185,328291.800,  45.834864112,-110.934317917, 2317.2736,  1,  6,  0.0364,  0.0219,  0.0650, -0.0096,  0.0245, -0.0351,-28.20,  64.2
2185,328292.000,  45.834864172,-110.934317776, 2317.2728,  1,  6,  0.0361,  0.0218,  0.0646, -0.0096,  0.0244, -0.0348,-28.00,  63.5
2185,328292.200,  45.834864265,-110.934317599, 2317.2679,  1,  6,  0.0359,  0.0216,  0.0642, -0.0095,  0.0242, -0.0346,-27.80,  62.8
2185,328292.400,  45.834864279,-110.934317379, 2317.2703,  1,  6,  0.0357,  0.0215,  0.0638, -0.0095,  0.0241, -0.0344,-27.60,  62.1
2185,328292.600,  45.834864232,-110.934317206, 2317.2795,  1,  6,  0.0355,  0.0214,  0.0634, -0.0094,  0.0239, -0.0342,-27.40,  61.4
2185,328292.800,  45.834864096,-110.934317092, 2317.2860,  1,  6,  0.0352,  0.0212,  0.0630, -0.0093,  0.0238, -0.0340,-27.20,  60.7
2185,328293.000,  45.834863955,-110.934317129, 2317.2958,  1,  6,  0.0350,  0.0211,  0.0626, -0.0093,  0.0236, -0.0338,-27.00,  60.0
2185,328293.200,  45.834863861,-110.934317286, 2317.2998,  1,  6,  0.0348,  0.0209,  0.0621, -0.0092,  0.0234, -0.0335,-26.80,  59.4
2185,328293.400,  45.834863785,-110.934317505, 2317.3032,  1,  6,  0.0346,  0.0208,  0.0617, -0.0092,  0.0233, -0.0333,-26.60,  58.7
2185,328293.600,  45.834863712,-110.934317760, 2317.3055,  1,  6,  0.0343,  0.0207,  0.0613, -0.0091,  0.0231, -0.0331,-26.40,  58.0
2185,328293.800,  45.834863671,-110.934318048, 2317.3100,  1,  6,  0.0341,  0.0205,  0.0609, -0.0090,  0.0230, -0.0329,-26.20,  57.4
2185,328294.000,  45.834863664,-110.934318288, 2317.3065,  1,  6,  0.0339,  0.0204,  0.0605, -0.0090,  0.0228, -0.0327,-26.00,  56.7
2185,328294.200,  45.834863591,-110.934318486, 2317.3007,  1,  6,  0.0336,  0.0202,  0.0601, -0.0089,  0.0227, -0.0324,-25.80,  56.1
2185,328294.400,  45.834863516,-110.934318627, 2317.2991,  1,  6,  0.0334,  0.0201,  0.0597, -0.0089,  0.0225, -0.0322,-25.60,  55.4
2185,328294.600,  45.834863506,-110.934318698, 2317.2924,  1,  6,  0.0332,  0.0200,  0.0593, -0.0088,  0.0223, -0.0320,-25.40,  54.8
2185,328294.800,  45.834863521,-110.934318749, 2317.2928,  1,  6,  0.0330,  0.0198,  0.0589, -0.0088,  0.0222, -0.0318,-25.20,  54.1
2185,328295.000,  45.834863589,-110.934318820, 2317.2861,  1,  6,  0.0327,  0.0197,  0.0584, -0.0087,  0.0220, -0.0315,-25.00,  53.5
2185,328295.200,  45.834863682,-110.934318825, 2317.2735,  1,  6,  0.0325,  0.0195,  0.0580, -0.0086,  0.0219, -0.0313,-24.80,  52.9
2185,328295.400,  45.834863744,-110.934318881, 2317.2762,  1,  6,  0.0323,  0.0194,  0.0576, -0.0086,  0.0217, -0.0311,-24.60,  52.3
2185,328295.600,  45.834863790,-110.934318923, 2317.2748,  1,  6,  0.0320,  0.0192,  0.0572, -0.0085,  0.0216, -0.0309,-24.40,  51.7
2185,328295.800,  45.834863834,-110.934318968, 2317.2818,  1,  6,  0.0318,  0.0191,  0.0568, -0.0085,  0.0214, -0.0307,-24.20,  51.0
2185,328296.000,  45.834863871,-110.934318924, 2317.2869,  1,  6,  0.0316,  0.0190,  0.0564, -0.0084,  0.0212, -0.0304,-24.00,  50.4
2185,328296.200,  45.834863911,-110.934318786, 2317.2908,  1,  6,  0.0314,  0.0188,  0.0560, -0.0083,  0.0211, -0.0302,-23.80,  49.8
2185,328296.400,  45.834863911,-110.934318504, 2317.2938,  1,  6,  0.0311,  0.0187,  0.0556, -0.0083,  0.0209, -0.0300,-23.60,  49.3
2185,328296.600,  45.834863919,-110.934318189, 2317.2891,  1,  6,  0.0309,  0.0185,  0.0551, -0.0082,  0.0208, -0.0298,-23.40,  48.7
2185,328296.800,  45.834863924,-110.934318004, 2317.2809,  1,  6,  0.0307,  0.0184,  0.0547, -0.0082,  0.0206, -0.0296,-23.20,  48.1
2185,328297.000,  45.834863972,-110.934318043, 2317.2763,  1,  6,  0.0304,  0.0183,  0.0543, -0.0081,  0.0205, -0.0293,-23.00,  47.5
2185,328297.200,  45.834863962,-110.934318500, 2317.2717,  1,  6,  0.0302,  0.0181,  0.0539, -0.0080,  0.0203, -0.0291,-22.80,  46.9
2185,328297.400,  45.834863692,-110.934319557, 2317.2895,  1,  6,  0.0300,  0.0180,  0.0535, -0.0080,  0.0201, -0.0289,-22.60,  46.3
2185,328297.600,  45.834862966,-110.934321483, 2317.3556,  1,  6,  0.0298,  0.0178,  0.0531, -0.0079,  0.0200, -0.0287,-22.40,  45.8
2185,328297.800,  45.834861568,-110.934324363, 2317.4690,  1,  6,  0.0295,  0.0177,  0.0527, -0.0079,  0.0198, -0.0284,-22.20,  45.2
2185,328298.000,  45.834859617,-110.934328300, 2317.6453,  1,  6,  0.0293,  0.0175,  0.0522, -0.0078,  0.0197, -0.0282,-22.00,  44.7
2185,328298.200,  45.834857041,-110.934333327, 2317.8820,  1,  6,  0.0291,  0.0174,  0.0518, -0.0077,  0.0195, -0.0280,-21.80,  44.1
2185,328298.400,  45.834853832,-110.934339471, 2318.1816,  1,  6,  0.0288,  0.0173,  0.0514, -0.0077,  0.0193, -0.0278,-21.60,  43.6
2185,328298.600,  45.834850203,-110.934346514, 2318.5373,  1,  6,  0.0286,  0.0171,  0.0510, -0.0076,  0.0192, -0.0275,-21.40,  43.0
2185,328298.800,  45.834846424,-110.934353824, 2318.8972,  1,  6,  0.0284,  0.0170,  0.0506, -0.0075,  0.0190, -0.0273,-21.20,  42.5
2185,328299.000,  45.834842600,-110.934361064, 2319.2575,  1,  6,  0.0282,  0.0168,  0.0502, -0.0075,  0.0189, -0.0271,-21.00,  41.9
2185,328299.200,  45.834838814,-110.934368072, 2319.6162,  1,  6,  0.0279,  0.0167,  0.0497, -0.0074,  0.0187, -0.0269,-20.80,  41.4
2185,328299.400,  45.834835090,-110.934374783, 2319.9651,  1,  6,  0.0277,  0.0166,  0.0493, -0.0074,  0.0185, -0.0266,-20.60,  40.9
2185,328299.600,  45.834831430,-110.934381240, 2320.3183,  1,  6,  0.0275,  0.0164,  0.0489, -0.0073,  0.0184, -0.0264,-20.40,  40.4
2185,328299.800,  45.834827845,-110.934387435, 2320.6627,  1,  6,  0.0272,  0.0163,  0.0485, -0.0072,  0.0182, -0.0262,-20.20,  39.8
2185,328300.000,  45.834824268,-110.934393465, 2321.0130,  1,  6,  0.0270,  0.0161,  0.0481, -0.0072,  0.0181, -0.0260,-20.00,  39.3
2185,328300.200,  45.834820809,-110.934399395, 2321.3540,  1,  6,  0.0268,  0.0160,  0.0477, -0.0071,  0.0179, -0.0258,-19.80,  38.8
2185,328300.400,  45.834817384,-110.934405340, 2321.6932,  1,  6,  0.0266,  0.0158,  0.0472, -0.0071,  0.0177, -0.0255,-19.60,  38.3
2185,328300.600,  45.834814076,-110.934411326, 2322.0266,  1,  6,  0.0263,  0.0157,  0.0468, -0.0070,  0.0176, -0.0253,-19.40,  37.8
2185,328300.800,  45.834810969,-110.934417280, 2322.3490,  1,  6,  0.0261,  0.0156,  0.0464, -0.0069,  0.0174, -0.0251,-19.20,  37.3
2185,328301.000,  45.834807834,-110.934423162, 2322.6812,  1,  6,  0.0259,  0.0154,  0.0460, -0.0069,  0.0172, -0.0249,-19.00,  36.8
2185,328301.200,  45.834804719,-110.934429104, 2323.0137,  1,  6,  0.0256,  0.0153,  0.0456, -0.0068,  0.0171, -0.0246,-18.80,  36.3
2185,328301.400,  45.834801568,-110.934435162, 2323.3604,  1,  6,  0.0254,  0.0151,  0.0451, -0.0067,  0.0169, -0.0244,-18.60,  35.9
2185,328301.600,  45.834798368,-110.934441347, 2323.6945,  1,  6,  0.0252,  0.0150,  0.0447, -0.0067,  0.0168, -0.0242,-18.40,  35.4
2185,328301.800,  45.834795056,-110.934447691, 2324.0500,  1,  6,  0.0250,  0.0148,  0.0443, -0.0066,  0.0166, -0.0240,-18.20,  34.9
2185,328302.000,  45.834791590,-110.934454017, 2324.4020,  1,  6,  0.0247,  0.0147,  0.0439, -0.0066,  0.0164, -0.0237,-18.00,  34.4
2185,328302.200,  45.834788153,-110.934460310, 2324.7498,  1,  6,  0.0245,  0.0146,  0.0435, -0.0065,  0.0163, -0.0235,-17.80,  34.0
2185,328302.400,  45.834784695,-110.934466580, 2325.1039,  1,  6,  0.0243,  0.0144,  0.0430, -0.0064,  0.0161, -0.0233,-17.60,  33.5
2185,328302.600,  45.834781147,-110.934472869, 2325.4506,  1,  6,  0.0240,  0.0143,  0.0426, -0.0064,  0.0159, -0.0231,-17.40,  33.0
2185,328302.800,  45.834777605,-110.934479222, 2325.7996,  1,  6,  0.0238,  0.0141,  0.0422, -0.0063,  0.0158, -0.0228,-17.20,  32.6
2185,328303.000,  45.834774120,-110.934485609, 2326.1487,  1,  6,  0.0236,  0.0140,  0.0418, -0.0062,  0.0156, -0.0226,-17.00,  32.1
2185,328303.200,  45.834770890,-110.934491997, 2326.4846,  1,  6,  0.0234,  0.0138,  0.0414, -0.0062,  0.0155, -0.0224,-16.80,  31.7
2185,328303.400,  45.834767653,-110.934498292, 2326.8299,  1,  6,  0.0231,  0.0137,  0.0409, -0.0061,  0.0153, -0.0221,-16.60,  31.2
2185,328303.600,  45.834764395,-110.934504639, 2327.1765,  1,  6,  0.0229,  0.0136,  0.0405, -0.0061,  0.0151, -0.0219,-16.40,  30.8
2185,328303.800,  45.834761190,-110.934510979, 2327.5234,  1,  6,  0.0227,  0.0134,  0.0401, -0.0060,  0.0150, -0.0217,-16.20,  30.4
2185,328304.000,  45.834757975,-110.934517262, 2327.8735,  1,  6,  0.0224,  0.0133,  0.0397, -0.0059,  0.0148, -0.0215,-16.00,  29.9
2185,328304.200,  45.834754703,-110.934523506, 2328.2277,  1,  6,  0.0222,  0.0131,  0.0393, -0.0059,  0.0146, -0.0212,-15.80,  29.5
2185,328304.400,  45.834751463,-110.934529706, 2328.5702,  1,  6,  0.0220,  0.0130,  0.0388, -0.0058,  0.0145, -0.0210,-15.60,  29.1
2185,328304.600,  45.834748214,-110.934535864, 2328.9141,  1,  6,  0.0218,  0.0129,  0.0384, -0.0057,  0.0143, -0.0208,-15.40,  28.7
2185,328304.800,  45.834744942,-110.934542021, 2329.2585,  1,  6,  0.0215,  0.0127,  0.0380, -0.0057,  0.0142, -0.0206,-15.20,  28.3
2185,328305.000,  45.834741695,-110.934548173, 2329.6060,  1,  6,  0.0213,  0.0126,  0.0376, -0.0056,  0.0140, -0.0203,-15.00,  27.8
2185,328305.200,  45.834738484,-110.934554316, 2329.9524,  1,  6,  0.0211,  0.0124,  0.0372, -0.0056,  0.0138, -0.0201,-14.80,  27.4
2185,328305.400,  45.834735264,-110.934560459, 2330.2953,  1,  6,  0.0208,  0.0123,  0.0367, -0.0055,  0.0137, -0.0199,-14.60,  27.0
2185,328305.600,  45.834732050,-110.934566679, 2330.6317,  1,  6,  0.0206,  0.0121,  0.0363, -0.0054,  0.0135, -0.0197,-14.40,  26.6
2185,328305.800,  45.834728759,-110.934572954, 2330.9737,  1,  6,  0.0204,  0.0120,  0.0359, -0.0054,  0.0133, -0.0194,-14.20,  26.2
2185,328306.000,  45.834725452,-110.934579233, 2331.3146,  1,  6,  0.0202,  0.0119,  0.0355, -0.0053,  0.0132, -0.0192,-14.00,  25.8
2185,328306.200,  45.834722115,-110.934585517, 2331.6490,  1,  6,  0.0199,  0.0117,  0.0351, -0.0052,  0.0130, -0.0190,-13.80,  25.4
2185,328306.400,  45.834718743,-110.934591735, 2331.9847,  1,  6,  0.0197,  0.0116,  0.0346, -0.0052,  0.0128, -0.0188,-13.60,  25.0
2185,328306.600,  45.834715360,-110.934597992, 2332.3282,  1,  6,  0.0195,  0.0114,  0.0342, -0.0051,  0.0127, -0.0185,-13.40,  24.7
2185,328306.800,  45.834712006,-110.934604249, 2332.6554,  1,  6,  0.0193,  0.0113,  0.0338, -0.0050,  0.0125, -0.0183,-13.20,  24.3
2185,328307.000,  45.834708553,-110.934610549, 2333.0012,  1,  6,  0.0190,  0.0112,  0.0334, -0.0050,  0.0123, -0.0181,-13.00,  23.9
2185,328307.200,  45.834705117,-110.934616815, 2333.3479,  1,  6,  0.0188,  0.0110,  0.0330, -0.0049,  0.0122, -0.0179,-12.80,  23.5
2185,328307.400,  45.834701628,-110.934623073, 2333.6851,  1,  6,  0.0186,  0.0109,  0.0326, -0.0048,  0.0120, -0.0176,-12.60,  23.2
2185,328307.600,  45.834698145,-110.934629281, 2334.0258,  1,  6,  0.0184,  0.0107,  0.0321, -0.0048,  0.0118, -0.0174,-12.40,  22.8
2185,328307.800,  45.834694661,-110.934635492, 2334.3662,  1,  6,  0.0181,  0.0106,  0.0317, -0.0047,  0.0117, -0.0172,-12.20,  22.4
2185,328308.000,  45.834691181,-110.934641714, 2334.7084,  1,  6,  0.0179,  0.0105,  0.0313, -0.0046,  0.0115, -0.0170,-12.00,  22.1
2185,328308.200,  45.834687735,-110.934647913, 2335.0466,  1,  6,  0.0177,  0.0103,  0.0309, -0.0046,  0.0113, -0.0167,-11.80,  21.7
2185,328308.400,  45.834684251,-110.934654077, 2335.3832,  1,  6,  0.0175,  0.0102,  0.0305, -0.0045,  0.0112, -0.0165,-11.60,  21.4
2185,328308.600,  45.834680776,-110.934660193, 2335.7370,  1,  6,  0.0173,  0.0100,  0.0300, -0.0045,  0.0110, -0.0163,-11.40,  21.0
2185,328308.800,  45.834677326,-110.934666397, 2336.0679,  1,  6,  0.0170,  0.0099,  0.0296, -0.0044,  0.0109, -0.0161,-11.20,  20.7
2185,328309.000,  45.834673964,-110.934672667, 2336.4084,  1,  6,  0.0168,  0.0098,  0.0292, -0.0043,  0.0107, -0.0158,-11.00,  20.3
2185,328309.200,  45.834670669,-110.934679028, 2336.7496,  1,  6,  0.0166,  0.0096,  0.0288, -0.0043,  0.0105, -0.0156,-10.80,  20.0
2185,328309.400,  45.834667341,-110.934685382, 2337.0913,  1,  6,  0.0164,  0.0095,  0.0284, -0.0042,  0.0104, -0.0154,-10.60,  19.6
2185,328309.600,  45.834663958,-110.934691689, 2337.4300,  1,  6,  0.0162,  0.0093,  0.0280, -0.0041,  0.0102, -0.0152,-10.40,  19.3
2185,328309.800,  45.834660596,-110.934697932, 2337.7805,  1,  6,  0.0159,  0.0092,  0.0276, -0.0041,  0.0100, -0.0149,-10.20,  19.0
2185,328310.000,  45.834657269,-110.934704212, 2338.1203,  1,  6,  0.0157,  0.0091,  0.0272, -0.0040,  0.0099, -0.0147,-10.00,  18.6
2185,328310.200,  45.834653994,-110.934710462, 2338.4559,  1,  6,  0.0155,  0.0089,  0.0267, -0.0039,  0.0097, -0.0145, -9.80,  18.3
2185,328310.400,  45.834650591,-110.934716712, 2338.7999,  1,  6,  0.0153,  0.0088,  0.0263, -0.0039,  0.0095, -0.0143, -9.60,  18.0
2185,328310.600,  45.834647306,-110.934722943, 2339.1325,  1,  6,  0.0151,  0.0087,  0.0259, -0.0038,  0.0094, -0.0140, -9.40,  17.7
2185,328310.800,  45.834643988,-110.934729247, 2339.4669,  1,  6,  0.0149,  0.0085,  0.0255, -0.0037,  0.0092, -0.0138, -9.20,  17.4
2185,328311.000,  45.834640719,-110.934735569, 2339.7985,  1,  6,  0.0146,  0.0084,  0.0251, -0.0037,  0.0090, -0.0136, -9.00,  17.1
2185,328311.200,  45.834637344,-110.934741835, 2340.1386,  1,  6,  0.0144,  0.0083,  0.0247, -0.0036,  0.0089, -0.0134, -8.80,  16.7
2185,328311.400,  45.834633988,-110.934748122, 2340.4771,  1,  6,  0.0142,  0.0081,  0.0243, -0.0035,  0.0087, -0.0132, -8.60,  16.4
2185,328311.600,  45.834630632,-110.934754381, 2340.8113,  1,  6,  0.0140,  0.0080,  0.0239, -0.0035,  0.0085, -0.0130, -8.40,  16.1
2185,328311.800,  45.834627152,-110.934760531, 2341.1530,  1,  6,  0.0138,  0.0079,  0.0235, -0.0034,  0.0084, -0.0127, -8.20,  15.8
2185,328312.000,  45.834623704,-110.934766686, 2341.5056,  1,  6,  0.0136,  0.0077,  0.0231, -0.0033,  0.0082, -0.0125, -8.00,  15.5
2185,328312.200,  45.834620258,-110.934772862, 2341.8457,  1,  6,  0.0134,  0.0076,  0.0227, -0.0033,  0.0080, -0.0123, -7.80,  15.2
2185,328312.400,  45.834616833,-110.934779040, 2342.1963,  1,  6,  0.0132,  0.0075,  0.0223, -0.0032,  0.0079, -0.0121, -7.60,  15.0
2185,328312.600,  45.834613331,-110.934785166, 2342.5418,  1,  6,  0.0130,  0.0073,  0.0219, -0.0031,  0.0077, -0.0119, -7.40,  14.7
2185,328312.800,  45.834609928,-110.934791379, 2342.8764,  1,  6,  0.0128,  0.0072,  0.0215, -0.0031,  0.0076, -0.0117, -7.20,  14.4
2185,328313.000,  45.834606546,-110.934797619, 2343.2194,  1,  6,  0.0126,  0.0071,  0.0212, -0.0030,  0.0074, -0.0115, -7.00,  14.1
2185,328313.200,  45.834603142,-110.934803815, 2343.5574,  1,  6,  0.0124,  0.0070,  0.0208, -0.0029,  0.0072, -0.0112, -6.80,  13.8
2185,328313.400,  45.834599674,-110.934810055, 2343.9037,  1,  6,  0.0122,  0.0068,  0.0204, -0.0029,  0.0071, -0.0110, -6.60,  13.5
2185,328313.600,  45.834596257,-110.934816227, 2344.2428,  1,  6,  0.0120,  0.0067,  0.0200, -0.0028,  0.0069, -0.0108, -6.40,  13.3
2185,328313.800,  45.834592953,-110.934822365, 2344.5807,  1,  6,  0.0118,  0.0066,  0.0196, -0.0027,  0.0068, -0.0106, -6.20,  13.0
2185,328314.000,  45.834589580,-110.934828525, 2344.9086,  1,  6,  0.0116,  0.0065,  0.0193, -0.0026,  0.0066, -0.0104, -6.00,  12.7
2185,328314.200,  45.834586150,-110.934834681, 2345.2477,  1,  6,  0.0114,  0.0064,  0.0189, -0.0026,  0.0064, -0.0102, -5.80,  12.5
2185,328314.400,  45.834582721,-110.934840765, 2345.6065,  1,  6,  0.0112,  0.0062,  0.0186, -0.0025,  0.0063, -0.0100, -5.60,  12.2
2185,328314.600,  45.834579263,-110.934846886, 2345.9405,  1,  6,  0.0111,  0.0061,  0.0182, -0.0024,  0.0061, -0.0098, -5.40,  11.9
2185,328314.800,  45.834575880,-110.934853057, 2346.2734,  1,  6,  0.0109,  0.0060,  0.0178, -0.0024,  0.0060, -0.0096, -5.20,  11.7
2185,328315.000,  45.834572454,-110.934859284, 2346.6153,  1,  6,  0.0107,  0.0059,  0.0175, -0.0023,  0.0058, -0.0095, -5.00,  11.4
2185,328315.200,  45.834569067,-110.934865549, 2346.9533,  1,  6,  0.0105,  0.0058,  0.0172, -0.0022,  0.0057, -0.0093, -4.80,  11.2
2185,328315.400,  45.834565697,-110.934871912, 2347.2932,  1,  6,  0.0104,  0.0057,  0.0168, -0.0022,  0.0055, -0.0091, -4.60,  10.9
2185,328315.600,  45.834562297,-110.934878221, 2347.6248,  1,  6,  0.0102,  0.0056,  0.0165, -0.0021,  0.0054, -0.0089, -4.40,  10.7
2185,328315.800,  45.834558957,-110.934884588, 2347.9674,  1,  6,  0.0100,  0.0055,  0.0162, -0.0020,  0.0052, -0.0087, -4.20,  10.4
2185,328316.000,  45.834555492,-110.934890954, 2348.3245,  1,  6,  0.0099,  0.0054,  0.0159, -0.0020,  0.0051, -0.0085, -4.00,  10.2
2185,328316.200,  45.834552075,-110.934897294, 2348.6717,  1,  6,  0.0097,  0.0053,  0.0156, -0.0019,  0.0050, -0.0084, -3.80,   9.9
2185,328316.400,  45.834548706,-110.934903620, 2349.0088,  1,  6,  0.0096,  0.0052,  0.0153, -0.0018,  0.0048, -0.0082, -3.60,   9.7
2185,328316.600,  45.834545257,-110.934909965, 2349.3644,  1,  6,  0.0094,  0.0051,  0.0150, -0.0018,  0.0047, -0.0081, -3.40,   9.5
2185,328316.800,  45.834541812,-110.934916248, 2349.7105,  1,  6,  0.0093,  0.0050,  0.0147, -0.0017,  0.0046, -0.0079, -3.20,   9.2
2185,328317.000,  45.834538381,-110.934922520, 2350.0522,  1,  6,  0.0091,  0.0049,  0.0145, -0.0017,  0.0044, -0.0078, -3.00,   9.0
2185,328317.200,  45.834534913,-110.934928791, 2350.3876,  1,  6,  0.0090,  0.0048,  0.0142, -0.0016,  0.0043, -0.0076, -2.80,   8.8
2185,328317.400,  45.834531491,-110.934935114, 2350.7311,  1,  6,  0.0089,  0.0048,  0.0140, -0.0015,  0.0042, -0.0075, -2.60,   8.5
2185,328317.600,  45.834528100,-110.934941401, 2351.0642,  1,  6,  0.0088,  0.0047,  0.0138, -0.0015,  0.0041, -0.0074, -2.40,   8.3
2185,328317.800,  45.834524650,-110.934947709, 2351.4029,  1,  6,  0.0087,  0.0046,  0.0136, -0.0014,  0.0040, -0.0072, -2.20,   8.1
2185,328318.000,  45.834521184,-110.934954032, 2351.7537,  1,  6,  0.0086,  0.0046,  0.0134, -0.0014,  0.0039, -0.0071, -2.00,   7.9
2185,328318.200,  45.834517784,-110.934960313, 2352.1105,  1,  6,  0.0085,  0.0045,  0.0132, -0.0013,  0.0038, -0.0070, -1.80,   7.6
2185,328318.400,  45.834514281,-110.934966556, 2352.4585,  1,  6,  0.0084,  0.0044,  0.0130, -0.0013,  0.0037, -0.0069, -1.60,   7.4
2185,328318.600,  45.834510837,-110.934972775, 2352.8002,  1,  6,  0.0083,  0.0044,  0.0129, -0.0012,  0.0037, -0.0068, -1.40,   7.2
2185,328318.800,  45.834507478,-110.934979042, 2353.1377,  1,  6,  0.0083,  0.0044,  0.0128, -0.0012,  0.0036, -0.0068, -1.20,   7.0
2185,328319.000,  45.834504034,-110.934985364, 2353.4800,  1,  6,  0.0082,  0.0043,  0.0127, -0.0012,  0.0035, -0.0067, -1.00,   6.8
2185,328319.200,  45.834500654,-110.934991630, 2353.8153,  1,  6,  0.0082,  0.0043,  0.0126, -0.0012,  0.0035, -0.0067, -0.80,   6.6
2185,328319.400,  45.834497162,-110.934997818, 2354.1682,  1,  6,  0.0081,  0.0043,  0.0125, -0.0011,  0.0035, -0.0066, -0.60,   6.4
2185,328319.600,  45.834493662,-110.935004036, 2354.5089,  1,  6,  0.0081,  0.0043,  0.0126, -0.0011,  0.0035, -0.0067, -0.40,   6.2
2185,328319.800,  45.834490289,-110.935010304, 2354.8426,  1,  6,  0.0083,  0.0043,  0.0128, -0.0012,  0.0035, -0.0068, -0.20,   6.0
2185,328320.000,  45.834486713,-110.935016456, 2355.1888,  1,  6,  0.0084,  0.0043,  0.0131, -0.0012,  0.0036, -0.0070,  0.00,   5.8
2185,328320.200,  45.834482941,-110.935022721, 2355.4925,  1,  6,  0.0383,  0.0231,  0.0684, -0.0104,  0.0259, -0.0369,-29.80,   5.6
2185,328320.400,  45.834479442,-110.935028943, 2355.8387,  1,  6,  0.0380,  0.0229,  0.0680, -0.0103,  0.0258, -0.0367,-29.60,   5.4
2185,328320.600,  45.834475927,-110.935035184, 2356.1832,  1,  6,  0.0378,  0.0228,  0.0676, -0.0103,  0.0256, -0.0365,-29.40,   5.2
2185,328320.800,  45.834472479,-110.935041456, 2356.5173,  1,  6,  0.0376,  0.0226,  0.0671, -0.0102,  0.0255, -0.0363,-29.20,   5.0
2185,328321.000,  45.834469058,-110.935047722, 2356.8627,  1,  6,  0.0374,  0.0225,  0.0667, -0.0102,  0.0253, -0.0360,-29.00,   4.8
2185,328321.200,  45.834465671,-110.935054026, 2357.2023,  1,  6,  0.0371,  0.0224,  0.0663, -0.0101,  0.0251, -0.0358,-28.80,   4.7
2185,328321.400,  45.834462253,-110.935060408, 2357.5406,  1,  6,  0.0369,  0.0222,  0.0659, -0.0100,  0.0250, -0.0356,-28.60,   4.5
2185,328321.600,  45.834458865,-110.935066808, 2357.8762,  1,  6,  0.0367,  0.0221,  0.0655, -0.0100,  0.0248, -0.0354,-28.40,   4.3
2185,328321.800,  45.834455447,-110.935073203, 2358.2211,  1,  6,  0.0364,  0.0219,  0.0651, -0.0099,  0.0247, -0.0352,-28.20,   4.1
2185,328322.000,  45.834451991,-110.935079631, 2358.5694,  1,  6,  0.0362,  0.0218,  0.0647, -0.0099,  0.0245, -0.0350,-28.00,   4.0
2185,328322.200,  45.834448522,-110.935086082, 2358.9093,  1,  6,  0.0360,  0.0217,  0.0643, -0.0098,  0.0244, -0.0347,-27.80,   3.8
2185,328322.400,  45.834445056,-110.935092504, 2359.2580,  1,  6,  0.0358,  0.0215,  0.0639, -0.0097,  0.0242, -0.0345,-27.60,   3.6
2185,328322.600,  45.834441529,-110.935098845, 2359.6036,  1,  6,  0.0355,  0.0214,  0.0635, -0.0097,  0.0240, -0.0343,-27.40,   3.5
2185,328322.800,  45.834438090,-110.935105084, 2359.9540,  1,  6,  0.0353,  0.0212,  0.0631, -0.0096,  0.0239, -0.0341,-27.20,   3.3
2185,328323.000,  45.834434706,-110.935111276, 2360.3086,  1,  6,  0.0351,  0.0211,  0.0627, -0.0096,  0.0237, -0.0339,-27.00,  21.6
2185,328323.200,  45.834431310,-110.935117389, 2360.6544,  1,  6,  0.0349,  0.0210,  0.0622, -0.0095,  0.0236, -0.0336,-26.80,  21.3
2185,328323.400,  45.834427877,-110.935123474, 2360.9992,  1,  6,  0.0346,  0.0208,  0.0618, -0.0094,  0.0234, -0.0334,-26.60,  21.0
2185,328323.600,  45.834424474,-110.935129534, 2361.3339,  1,  6,  0.0344,  0.0207,  0.0614, -0.0094,  0.0233, -0.0332,-26.40,  20.6
2185,328323.800,  45.834421059,-110.935135658, 2361.6842,  1,  6,  0.0342,  0.0205,  0.0610, -0.0093,  0.0231, -0.0330,-26.20,  20.3
2185,328324.000,  45.834417693,-110.935141870, 2362.0215,  1,  6,  0.0339,  0.0204,  0.0606, -0.0093,  0.0229, -0.0328,-26.00,  20.0
2185,328324.200,  45.834414312,-110.935148115, 2362.3564,  1,  6,  0.0337,  0.0203,  0.0602, -0.0092,  0.0228, -0.0325,-25.80,  19.7
2185,328324.400,  45.834410927,-110.935154387, 2362.6982,  1,  6,  0.0335,  0.0201,  0.0598, -0.0091,  0.0226, -0.0323,-25.60,  19.4
2185,328324.600,  45.834407577,-110.935160642, 2363.0351,  1,  6,  0.0333,  0.0200,  0.0594, -0.0091,  0.0225, -0.0321,-25.40,  19.1
2185,328324.800,  45.834404241,-110.935166903, 2363.3697,  1,  6,  0.0330,  0.0198,  0.0589, -0.0090,  0.0223, -0.0319,-25.20,  18.8
2185,328325.000,  45.834400918,-110.935173226, 2363.7087,  1,  6,  0.0328,  0.0197,  0.0585, -0.0089,  0.0222, -0.0316,-25.00,  18.5
2185,328325.200,  45.834397597,-110.935179524, 2364.0518,  1,  6,  0.0326,  0.0195,  0.0581, -0.0089,  0.0220, -0.0314,-24.80,  18.2
2185,328325.400,  45.834394205,-110.935185762, 2364.3987,  1,  6,  0.0323,  0.0194,  0.0577, -0.0088,  0.0218, -0.0312,-24.60,  18.0
2185,328325.600,  45.834390718,-110.935191968, 2364.7485,  1,  6,  0.0321,  0.0193,  0.0573, -0.0088,  0.0217, -0.0310,-24.40,  17.7
2185,328325.800,  45.834387331,-110.935198196, 2365.0920,  1,  6,  0.0319,  0.0191,  0.0569, -0.0087,  0.0215, -0.0308,-24.20,  17.4
2185,328326.000,  45.834383930,-110.935204456, 2365.4338,  1,  6,  0.0317,  0.0190,  0.0565, -0.0086,  0.0214, -0.0305,-24.00,  17.1
2185,328326.200,  45.834380558,-110.935210855, 2365.7743,  1,  6,  0.0314,  0.0188,  0.0561, -0.0086,  0.0212, -0.0303,-23.80,  16.8
2185,328326.400,  45.834377181,-110.935217290, 2366.1242,  1,  6,  0.0312,  0.0187,  0.0556, -0.0085,  0.0210, -0.0301,-23.60,  16.5
2185,328326.600,  45.834373782,-110.935223724, 2366.4634,  1,  6,  0.0310,  0.0186,  0.0552, -0.0085,  0.0209, -0.0299,-23.40,  16.3
2185,328326.800,  45.834370370,-110.935230160, 2366.8126,  1,  6,  0.0307,  0.0184,  0.0548, -0.0084,  0.0207, -0.0296,-23.20,  16.0
2185,328327.000,  45.834366990,-110.935236595, 2367.1572,  1,  6,  0.0305,  0.0183,  0.0544, -0.0083,  0.0206, -0.0294,-23.00,  15.7
2185,328327.200,  45.834363567,-110.935243013, 2367.5066,  1,  6,  0.0303,  0.0181,  0.0540, -0.0083,  0.0204, -0.0292,-22.80,  15.5
2185,328327.400,  45.834360156,-110.935249461, 2367.8500,  1,  6,  0.0301,  0.0180,  0.0536, -0.0082,  0.0202, -0.0290,-22.60,  15.2
2185,328327.600,  45.834356703,-110.935255797, 2368.2092,  1,  6,  0.0298,  0.0178,  0.0531, -0.0081,  0.0201, -0.0288,-22.40,  14.9
2185,328327.800,  45.834353197,-110.935262101, 2368.5569,  1,  6,  0.0296,  0.0177,  0.0527, -0.0081,  0.0199, -0.0285,-22.20,  14.7
2185,328328.000,  45.834349742,-110.935268390, 2368.9115,  1,  6,  0.0294,  0.0176,  0.0523, -0.0080,  0.0198, -0.0283,-22.00,  14.4
2185,328328.200,  45.834346299,-110.935274627, 2369.2558,  1,  6,  0.0291,  0.0174,  0.0519, -0.0080,  0.0196, -0.0281,-21.80,  14.2
2185,328328.400,  45.834342845,-110.935280869, 2369.5946,  1,  6,  0.0289,  0.0173,  0.0515, -0.0079,  0.0194, -0.0279,-21.60,  13.9
2185,328328.600,  45.834339435,-110.935287104, 2369.9454,  1,  6,  0.0287,  0.0171,  0.0511, -0.0078,  0.0193, -0.0276,-21.40,  13.7
2185,328328.800,  45.834336054,-110.935293365, 2370.2897,  1,  6,  0.0285,  0.0170,  0.0507, -0.0078,  0.0191, -0.0274,-21.20,  13.4
2185,328329.000,  45.834332636,-110.935299611, 2370.6251,  1,  6,  0.0282,  0.0169,  0.0502, -0.0077,  0.0190, -0.0272,-21.00,  13.2
2185,328329.200,  45.834329172,-110.935305830, 2370.9691,  1,  6,  0.0280,  0.0167,  0.0498, -0.0076,  0.0188, -0.0270,-20.80,  13.0
2185,328329.400,  45.834325721,-110.935312074, 2371.3147,  1,  6,  0.0278,  0.0166,  0.0494, -0.0076,  0.0186, -0.0267,-20.60,  12.7
2185,328329.600,  45.834322256,-110.935318221, 2371.6573,  1,  6,  0.0275,  0.0164,  0.0490, -0.0075,  0.0185, -0.0265,-20.40,  12.5
2185,328329.800,  45.834318782,-110.935324218, 2371.9995,  1,  6,  0.0273,  0.0163,  0.0486, -0.0075,  0.0183, -0.0263,-20.20,  12.2
2185,328330.000,  45.834315251,-110.935330168, 2372.3426,  1,  6,  0.0271,  0.0161,  0.0481, -0.0074,  0.0182, -0.0261,-20.00,  12.0
2185,328330.200,  45.834311767,-110.935336160, 2372.6884,  1,  6,  0.0268,  0.0160,  0.0477, -0.0073,  0.0180, -0.0258,-19.80,  11.8
2185,328330.400,  45.834308440,-110.935342215, 2373.0301,  1,  6,  0.0266,  0.0159,  0.0473, -0.0073,  0.0178, -0.0256,-19.60,  11.5
2185,328330.600,  45.834305083,-110.935348320, 2373.3628,  1,  6,  0.0264,  0.0157,  0.0469, -0.0072,  0.0177, -0.0254,-19.40,  11.3
2185,328330.800,  45.834301751,-110.935354430, 2373.6965,  1,  6,  0.0262,  0.0156,  0.0465, -0.0071,  0.0175, -0.0252,-19.20,  11.1
2185,328331.000,  45.834298408,-110.935360526, 2374.0315,  1,  6,  0.0259,  0.0154,  0.0461, -0.0071,  0.0173, -0.0249,-19.00,  10.9
2185,328331.200,  45.834295007,-110.935366652, 2374.3619,  1,  6,  0.0257,  0.0153,  0.0456, -0.0070,  0.0172, -0.0247,-18.80,  10.7
2185,328331.400,  45.834291656,-110.935372828, 2374.7044,  1,  6,  0.0255,  0.0151,  0.0452, -0.0069,  0.0170, -0.0245,-18.60,  10.4
2185,328331.600,  45.834288331,-110.935379090, 2375.0388,  1,  6,  0.0252,  0.0150,  0.0448, -0.0069,  0.0169, -0.0243,-18.40,  10.2
2185,328331.800,  45.834284970,-110.935385457, 2375.3800,  1,  6,  0.0250,  0.0149,  0.0444, -0.0068,  0.0167, -0.0240,-18.20,  10.0
2185,328332.000,  45.834281584,-110.935391784, 2375.7044,  1,  6,  0.0248,  0.0147,  0.0440, -0.0068,  0.0165, -0.0238,-18.00,   9.8
2185,328332.200,  45.834278195,-110.935398117, 2376.0391,  1,  6,  0.0246,  0.0146,  0.0435, -0.0067,  0.0164, -0.0236,-17.80,   9.6
2185,328332.400,  45.834274715,-110.935404385, 2376.3824,  1,  6,  0.0243,  0.0144,  0.0431, -0.0066,  0.0162, -0.0234,-17.60,   9.4
2185,328332.600,  45.834271265,-110.935410591, 2376.7211,  1,  6,  0.0241,  0.0143,  0.0427, -0.0066,  0.0160, -0.0231,-17.40,   9.2
2185,328332.800,  45.834267857,-110.935416938, 2377.0545,  1,  6,  0.0239,  0.0141,  0.0423, -0.0065,  0.0159, -0.0229,-17.20,   9.0
2185,328333.000,  45.834264423,-110.935423334, 2377.4060,  1,  6,  0.0236,  0.0140,  0.0419, -0.0064,  0.0157, -0.0227,-17.00,   8.8
2185,328333.200,  45.834261021,-110.935429722, 2377.7551,  1,  6,  0.0234,  0.0139,  0.0414, -0.0064,  0.0156, -0.0225,-16.80,   8.6
2185,328333.400,  45.834257639,-110.935436087, 2378.0985,  1,  6,  0.0232,  0.0137,  0.0410, -0.0063,  0.0154, -0.0222,-16.60,   8.4
2185,328333.600,  45.834254299,-110.935442452, 2378.4412,  1,  6,  0.0229,  0.0136,  0.0406, -0.0062,  0.0152, -0.0220,-16.40,   8.2
2185,328333.800,  45.834251006,-110.935448793, 2378.7746,  1,  6,  0.0227,  0.0134,  0.0402, -0.0062,  0.0151, -0.0218,-16.20,   8.0
2185,328334.000,  45.834247721,-110.935455099, 2379.1130,  1,  6,  0.0225,  0.0133,  0.0398, -0.0061,  0.0149, -0.0215,-16.00,   7.8
2185,328334.200,  45.834244521,-110.935461337, 2379.4505,  1,  6,  0.0223,  0.0132,  0.0393, -0.0060,  0.0147, -0.0213,-15.80,   7.6
2185,328334.400,  45.834241325,-110.935467578, 2379.8017,  1,  6,  0.0220,  0.0130,  0.0389, -0.0060,  0.0146, -0.0211,-15.60,   7.5
2185,328334.600,  45.834238061,-110.935473752, 2380.1497,  1,  6,  0.0218,  0.0129,  0.0385, -0.0059,  0.0144, -0.0209,-15.40,   7.3
2185,328334.800,  45.834234711,-110.935479935, 2380.5209,  1,  6,  0.0216,  0.0127,  0.0381, -0.0058,  0.0142, -0.0206,-15.20,   7.1
2185,328335.000,  45.834231328,-110.935486046, 2380.8876,  1,  6,  0.0214,  0.0126,  0.0377, -0.0058,  0.0141, -0.0204,-15.00,   6.9
2185,328335.200,  45.834228163,-110.935491952, 2381.2197,  1,  6,  0.0211,  0.0124,  0.0372, -0.0057,  0.0139, -0.0202,-14.80,   6.7
2185,328335.400,  45.834225285,-110.935497195, 2381.4788,  1,  6,  0.0209,  0.0123,  0.0368, -0.0057,  0.0137, -0.0200,-14.60,   6.6
2185,328335.600,  45.834223125,-110.935501412, 2381.6593,  1,  6,  0.0207,  0.0122,  0.0364, -0.0056,  0.0136, -0.0197,-14.40,   6.4
2185,328335.800,  45.834221785,-110.935504204, 2381.8187,  1,  6,  0.0205,  0.0120,  0.0363, -0.0055,  0.0135, -0.0197,-14.20,   6.2
2185,328336.000,  45.834221099,-110.935505485, 2382.0121,  1,  6,  0.0204,  0.0119,  0.0376, -0.0054,  0.0131, -0.0201,-14.00,   6.4
2185,328336.200,  45.834220399,-110.935506226, 2382.3317,  1,  6,  0.0200,  0.0117,  0.0351, -0.0054,  0.0131, -0.0191,-13.80,   5.9
2185,328336.400,  45.834219289,-110.935507791, 2382.7616,  1,  6,  0.0198,  0.0116,  0.0347, -0.0053,  0.0129, -0.0188,-13.60,   5.8
2185,328336.600,  45.834217631,-110.935510505, 2383.2919,  1,  6,  0.0195,  0.0115,  0.0343, -0.0053,  0.0127, -0.0186,-13.40,   5.6
2185,328336.800,  45.834215652,-110.935513882, 2383.8774,  1,  6,  0.0193,  0.0113,  0.0339, -0.0052,  0.0126, -0.0184,-13.20,   5.4
2185,328337.000,  45.834213630,-110.935517379, 2384.4811,  1,  6,  0.0191,  0.0112,  0.0334, -0.0051,  0.0124, -0.0182,-13.00,   5.3
2185,328337.200,  45.834211593,-110.935520900, 2385.0885,  1,  6,  0.0189,  0.0110,  0.0330, -0.0051,  0.0122, -0.0179,-12.80,   5.1
2185,328337.400,  45.834209506,-110.935524546, 2385.6854,  1,  6,  0.0186,  0.0109,  0.0326, -0.0050,  0.0121, -0.0177,-12.60,   5.0
2185,328337.600,  45.834207461,-110.935528307, 2386.2891,  1,  6,  0.0184,  0.0107,  0.0322, -0.0049,  0.0119, -0.0175,-12.40,   4.8
2185,328337.800,  45.834205413,-110.935532040, 2386.8967,  1,  6,  0.0182,  0.0106,  0.0318, -0.0049,  0.0117, -0.0172,-12.20,   4.7
2185,328338.000,  45.834203440,-110.935535690, 2387.4962,  1,  6,  0.0180,  0.0105,  0.0313, -0.0048,  0.0116, -0.0170,-12.00,   4.5
2185,328338.200,  45.834201566,-110.935539237, 2388.1106,  1,  6,  0.0177,  0.0103,  0.0309, -0.0047,  0.0114, -0.0168,-11.80,   4.4
2185,328338.400,  45.834199713,-110.935542804, 2388.7290,  1,  6,  0.0175,  0.0102,  0.0305, -0.0046,  0.0112, -0.0166,-11.60,   4.3
2185,328338.600,  45.834197905,-110.935546437, 2389.3356,  1,  6,  0.0173,  0.0100,  0.0300, -0.0046,  0.0111, -0.0163,-11.40,   4.1
2185,328338.800,  45.834196026,-110.935550085, 2389.9355,  1,  6,  0.0170,  0.0099,  0.0296, -0.0045,  0.0109, -0.0160,-11.20,   4.0
2185,328339.000,  45.834193988,-110.935554021, 2390.5159,  1,  6,  0.0168,  0.0098,  0.0292, -0.0044,  0.0107, -0.0158,-11.00,  12.8
2185,328339.200,  45.834192106,-110.935557832, 2391.1128,  1,  6,  0.0162,  0.0096,  0.0280, -0.0042,  0.0105, -0.0148,-10.80,  12.4
2185,328339.400,  45.834190213,-110.935561523, 2391.7287,  1,  7,  0.0134,  0.0095,  0.0243, -0.0044,  0.0104, -0.0100,-10.60,  12.0
2185,328339.600,  45.834188299,-110.935565143, 2392.3395,  1,  7,  0.0133,  0.0093,  0.0239, -0.0043,  0.0103, -0.0098,-10.40,  11.6
2185,328339.800,  45.834186373,-110.935568779, 2392.9516,  1,  7,  0.0131,  0.0092,  0.0236, -0.0043,  0.0101, -0.0097,-10.20,  11.3
2185,328340.000,  45.834184444,-110.935572411, 2393.5638,  1,  7,  0.0129,  0.0091,  0.0233, -0.0042,  0.0099, -0.0096,-10.00,  10.9
2185,328340.200,  45.834182515,-110.935576033, 2394.1676,  1,  7,  0.0128,  0.0089,  0.0229, -0.0041,  0.0098, -0.0095, -9.80,  10.5
2185,328340.400,  45.834180653,-110.935579623, 2394.7743,  1,  7,  0.0126,  0.0088,  0.0226, -0.0041,  0.0096, -0.0094, -9.60,  10.2
2185,328340.600,  45.834178841,-110.935583298, 2395.3707,  1,  7,  0.0125,  0.0087,  0.0223, -0.0040,  0.0095, -0.0092, -9.40,   9.9
2185,328340.800,  45.834177034,-110.935587104, 2395.9670,  1,  7,  0.0123,  0.0085,  0.0219, -0.0039,  0.0093, -0.0091, -9.20,   9.5
2185,328341.000,  45.834175164,-110.935590888, 2396.5744,  1,  7,  0.0121,  0.0084,  0.0216, -0.0039,  0.0091, -0.0090, -9.00,   9.2
2185,328341.200,  45.834173242,-110.935594614, 2397.1786,  1,  7,  0.0120,  0.0083,  0.0213, -0.0038,  0.0090, -0.0089, -8.80,   8.9
2185,328341.400,  45.834171295,-110.935598222, 2397.7908,  1,  7,  0.0118,  0.0081,  0.0210, -0.0038,  0.0088, -0.0088, -8.60,   8.6
2185,328341.600,  45.834169298,-110.935601751, 2398.3967,  1,  7,  0.0117,  0.0080,  0.0206, -0.0037,  0.0087, -0.0086, -8.40,   8.2
2185,328341.800,  45.834167362,-110.935605284, 2398.9959,  1,  7,  0.0115,  0.0079,  0.0203, -0.0036,  0.0085, -0.0085, -8.20,   7.9
2185,328342.000,  45.834165476,-110.935608899, 2399.5870,  1,  7,  0.0114,  0.0077,  0.0200, -0.0036,  0.0083, -0.0084, -8.00,   7.6
2185,328342.200,  45.834163563,-110.935612546, 2400.1907,  1,  7,  0.0112,  0.0076,  0.0197, -0.0035,  0.0082, -0.0083, -7.80,   7.3
2185,328342.400,  45.834161709,-110.935616223, 2400.7948,  1,  7,  0.0111,  0.0075,  0.0193, -0.0035,  0.0080, -0.0082, -7.60,   7.0
2185,328342.600,  45.834159863,-110.935619914, 2401.3856,  1,  7,  0.0109,  0.0073,  0.0190, -0.0034,  0.0079, -0.0080, -7.40,   6.8
2185,328342.800,  45.834158029,-110.935623696, 2401.9852,  1,  7,  0.0108,  0.0072,  0.0187, -0.0033,  0.0077, -0.0079, -7.20,   6.5
2185,328343.000,  45.834156093,-110.935627444, 2402.5924,  1,  7,  0.0105,  0.0071,  0.0182, -0.0032,  0.0075, -0.0076, -7.00,   6.2
2185,328343.200,  45.834154194,-110.935631178, 2403.1986,  1,  7,  0.0095,  0.0070,  0.0168, -0.0033,  0.0075, -0.0055, -6.80,   6.0
2185,328343.400,  45.834152314,-110.935634925, 2403.7995,  1,  7,  0.0094,  0.0068,  0.0165, -0.0033,  0.0073, -0.0054, -6.60,   5.7
2185,328343.600,  45.834150463,-110.935638676, 2404.4050,  1,  7,  0.0093,  0.0067,  0.0162, -0.0032,  0.0072, -0.0054, -6.40,   5.4
2185,328343.800,  45.834148601,-110.935642350, 2405.0051,  1,  7,  0.0092,  0.0066,  0.0160, -0.0031,  0.0070, -0.0053, -6.20,   5.2
2185,328344.000,  45.834146623,-110.935646003, 2405.6031,  1,  7,  0.0090,  0.0065,  0.0157, -0.0031,  0.0069, -0.0053, -6.00,   5.0
2185,328344.200,  45.834144674,-110.935649618, 2406.2128,  1,  7,  0.0089,  0.0063,  0.0154, -0.0030,  0.0067, -0.0052, -5.80,   4.7
2185,328344.400,  45.834142655,-110.935653243, 2406.8271,  1,  7,  0.0088,  0.0062,  0.0152, -0.0030,  0.0066, -0.0051, -5.60,   4.4
2185,328344.600,  45.834140631,-110.935656871, 2407.4245,  1,  7,  0.0087,  0.0061,  0.0149, -0.0029,  0.0064, -0.0051, -5.40,   3.9
2185,328344.800,  45.834138553,-110.935660498, 2408.0181,  1,  7,  0.0086,  0.0060,  0.0146, -0.0029,  0.0063, -0.0050, -5.20,   3.5
2185,328345.000,  45.834136211,-110.935664449, 2408.5915,  1,  7,  0.0085,  0.0059,  0.0144, -0.0028,  0.0061, -0.0050, -5.00, 999.9
2185,328345.200,  45.834134144,-110.935668180, 2409.1842,  1,  7,  0.0083,  0.0058,  0.0141, -0.0028,  0.0059, -0.0049, -4.80, 999.9
2185,328345.400,  45.834132063,-110.935671830, 2409.7832,  1,  8,  0.0079,  0.0055,  0.0134, -0.0033,  0.0053, -0.0057, -4.60, 999.9
2185,328345.600,  45.834129979,-110.935675361, 2410.3802,  1,  8,  0.0078,  0.0054,  0.0131, -0.0033,  0.0052, -0.0056, -4.40, 999.9
2185,328345.800,  45.834127916,-110.935678820, 2410.9798,  1,  8,  0.0077,  0.0053,  0.0129, -0.0032,  0.0051, -0.0055, -4.20, 999.9
2185,328346.000,  45.834125881,-110.935682266, 2411.5781,  1,  8,  0.0076,  0.0052,  0.0127, -0.0031,  0.0050, -0.0055, -4.00, 999.9
2185,328346.200,  45.834123823,-110.935685693, 2412.1761,  1,  8,  0.0075,  0.0051,  0.0125, -0.0031,  0.0048, -0.0054, -3.80, 999.9
2185,328346.400,  45.834121821,-110.935689093, 2412.7716,  1,  8,  0.0074,  0.0050,  0.0123, -0.0030,  0.0047, -0.0053, -3.60, 999.9
2185,328346.600,  45.834119904,-110.935692596, 2413.3679,  1,  8,  0.0073,  0.0049,  0.0121, -0.0029,  0.0046, -0.0052, -3.40, 999.9
2185,328346.800,  45.834117954,-110.935696235, 2413.9590,  1,  8,  0.0072,  0.0048,  0.0119, -0.0029,  0.0045, -0.0052, -3.20, 999.9
2185,328347.000,  45.834115988,-110.935700047, 2414.5557,  1,  8,  0.0071,  0.0047,  0.0117, -0.0028,  0.0044, -0.0051, -3.00, 999.9
2185,328347.200,  45.834114056,-110.935703816, 2415.1581,  1,  8,  0.0071,  0.0047,  0.0115, -0.0028,  0.0043, -0.0050, -2.80, 999.9
2185,328347.400,  45.834112143,-110.935707652, 2415.7541,  1,  8,  0.0070,  0.0046,  0.0114, -0.0027,  0.0042, -0.0050, -2.60, 999.9
2185,328347.600,  45.834110207,-110.935711384, 2416.3609,  1,  8,  0.0069,  0.0045,  0.0112, -0.0027,  0.0041, -0.0049, -2.40, 999.9
2185,328347.800,  45.834108271,-110.935715084, 2416.9650,  1,  8,  0.0069,  0.0045,  0.0110, -0.0026,  0.0040, -0.0048, -2.20, 999.9
2185,328348.000,  45.834106265,-110.935718730, 2417.5730,  1,  8,  0.0068,  0.0044,  0.0109, -0.0026,  0.0039, -0.0048, -2.00, 999.9
2185,328348.200,  45.834104268,-110.935722418, 2418.1721,  1,  8,  0.0067,  0.0044,  0.0108, -0.0025,  0.0039, -0.0047, -1.80, 999.9
2185,328348.400,  45.834102229,-110.935726127, 2418.7837,  1,  8,  0.0067,  0.0043,  0.0107, -0.0025,  0.0038, -0.0047, -1.60, 999.9
2185,328348.600,  45.834100210,-110.935729824, 2419.3904,  1,  8,  0.0066,  0.0043,  0.0106, -0.0024,  0.0037, -0.0046, -1.40, 999.9
2185,328348.800,  45.834098195,-110.935733488, 2419.9837,  1,  8,  0.0066,  0.0042,  0.0105, -0.0024,  0.0037, -0.0046, -1.20, 999.9
2185,328349.000,  45.834096137,-110.935737207, 2420.5888,  1,  8,  0.0066,  0.0042,  0.0104, -0.0024,  0.0036, -0.0046, -1.00, 999.9
2185,328349.200,  45.834094178,-110.935740983, 2421.1840,  1,  8,  0.0065,  0.0042,  0.0104, -0.0024,  0.0036, -0.0046, -0.80, 999.9
2185,328349.400,  45.834092200,-110.935744752, 2421.7973,  1,  8,  0.0065,  0.0041,  0.0103, -0.0024,  0.0036, -0.0045, -0.60, 999.9
2185,328349.600,  45.834090211,-110.935748476, 2422.3868,  1,  8,  0.0065,  0.0041,  0.0103, -0.0023,  0.0036, -0.0045, -0.40, 999.9
2185,328349.800,  45.834088207,-110.935752212, 2422.9911,  1,  8,  0.0066,  0.0042,  0.0105, -0.0024,  0.0037, -0.0046, -0.20, 999.9
2185,328350.000,  45.834086220,-110.935756005, 2423.5901,  1,  8,  0.0067,  0.0042,  0.0107, -0.0024,  0.0037, -0.0047,  0.00, 999.9
2185,328350.200,  45.834084218,-110.935759788, 2424.1755,  1,  8,  0.0259,  0.0215,  0.0500, -0.0128,  0.0227, -0.0176,-29.80, 999.9
2185,328350.400,  45.834082329,-110.935763431, 2424.7752,  1,  8,  0.0257,  0.0214,  0.0497, -0.0127,  0.0226, -0.0175,-29.60, 999.9
2185,328350.600,  45.834080419,-110.935767173, 2425.3748,  1,  8,  0.0256,  0.0212,  0.0495, -0.0126,  0.0225, -0.0174,-29.40, 999.9
2185,328350.800,  45.834078544,-110.935770994, 2425.9666,  1,  8,  0.0254,  0.0211,  0.0492, -0.0125,  0.0223, -0.0173,-29.20, 999.9
2185,328351.000,  45.834076499,-110.935774707, 2426.5503,  1,  8,  0.0253,  0.0210,  0.0489, -0.0125,  0.0222, -0.0172,-29.00, 999.9
2185,328351.200,  45.834074529,-110.935778443, 2427.1397,  1,  8,  0.0251,  0.0208,  0.0486, -0.0124,  0.0220, -0.0171,-28.80, 999.9
2185,328351.400,  45.834072441,-110.935782124, 2427.7347,  1,  8,  0.0250,  0.0207,  0.0483, -0.0123,  0.0219, -0.0170,-28.60, 999.9
2185,328351.600,  45.834070354,-110.935785763, 2428.3404,  1,  8,  0.0248,  0.0206,  0.0480, -0.0122,  0.0218, -0.0169,-28.40, 999.9
2185,328351.800,  45.834068209,-110.935789383, 2428.9600,  1,  8,  0.0247,  0.0205,  0.0477, -0.0122,  0.0216, -0.0168,-28.20, 999.9
2185,328352.000,  45.834065996,-110.935793085, 2429.6038,  1,  8,  0.0245,  0.0203,  0.0474, -0.0121,  0.0215, -0.0167,-28.00, 999.9
2185,328352.200,  45.834063865,-110.935796834, 2430.2421,  1,  8,  0.0244,  0.0202,  0.0471, -0.0120,  0.0214, -0.0166,-27.80, 999.9
2185,328352.400,  45.834061939,-110.935800479, 2430.8251,  1,  8,  0.0242,  0.0201,  0.0468, -0.0119,  0.0212, -0.0165,-27.60, 999.9
2185,328352.600,  45.834060324,-110.935803662, 2431.3040,  1,  8,  0.0241,  0.0199,  0.0465, -0.0119,  0.0211, -0.0164,-27.40, 999.9
2185,328352.800,  45.834059083,-110.935806130, 2431.6535,  1,  8,  0.0239,  0.0198,  0.0462, -0.0118,  0.0209, -0.0163,-27.20, 999.9
2185,328353.000,  45.834057969,-110.935808130, 2431.8966,  1,  8,  0.0238,  0.0197,  0.0459, -0.0117,  0.0208, -0.0162,-27.00, 999.9
2185,328353.200,  45.834056728,-110.935810200, 2432.0773,  1,  8,  0.0236,  0.0195,  0.0456, -0.0116,  0.0207, -0.0161,-26.80, 999.9
2185,328353.400,  45.834054911,-110.935813247, 2432.2769,  1,  8,  0.0235,  0.0194,  0.0453, -0.0116,  0.0205, -0.0160,-26.60, 999.9
2185,328353.600,  45.834052203,-110.935817793, 2432.5444,  1,  8,  0.0233,  0.0193,  0.0450, -0.0115,  0.0204, -0.0159,-26.40, 999.9
2185,328353.800,  45.834048850,-110.935823711, 2432.8636,  1,  8,  0.0231,  0.0192,  0.0447, -0.0114,  0.0203, -0.0158,-26.20, 999.9
2185,328354.000,  45.834045169,-110.935830315, 2433.2125,  1,  8,  0.0230,  0.0190,  0.0444, -0.0113,  0.0201, -0.0157,-26.00, 999.9
2185,328354.200,  45.834041389,-110.935837036, 2433.5713,  1,  8,  0.0228,  0.0189,  0.0441, -0.0113,  0.0200, -0.0156,-25.80, 999.9
2185,328354.400,  45.834037711,-110.935843600, 2433.9357,  1,  8,  0.0227,  0.0188,  0.0438, -0.0112,  0.0199, -0.0155,-25.60, 999.9
2185,328354.600,  45.834034138,-110.935849937, 2434.2961,  1,  8,  0.0225,  0.0186,  0.0435, -0.0111,  0.0197, -0.0154,-25.40, 999.9
2185,328354.800,  45.834030629,-110.935856119, 2434.6538,  1,  8,  0.0224,  0.0185,  0.0432, -0.0110,  0.0196, -0.0153,-25.20, 999.9
2185,328355.000,  45.834027260,-110.935862210, 2435.0101,  1,  8,  0.0222,  0.0184,  0.0429, -0.0110,  0.0194, -0.0152,-25.00, 999.9
2185,328355.200,  45.834023903,-110.935868148, 2435.3706,  1,  8,  0.0221,  0.0182,  0.0426, -0.0109,  0.0193, -0.0151,-24.80, 999.9
2185,328355.400,  45.834020612,-110.935874068, 2435.7277,  1,  8,  0.0219,  0.0181,  0.0423, -0.0108,  0.0192, -0.0150,-24.60, 999.9
2185,328355.600,  45.834017316,-110.935879934, 2436.0867,  1,  8,  0.0218,  0.0180,  0.0420, -0.0107,  0.0190, -0.0149,-24.40, 999.9
2185,328355.800,  45.834014095,-110.935885896, 2436.4521,  1,  8,  0.0216,  0.0178,  0.0417, -0.0107,  0.0189, -0.0148,-24.20, 999.9
2185,328356.000,  45.834010820,-110.935891874, 2436.8136,  1,  8,  0.0215,  0.0177,  0.0414, -0.0106,  0.0187, -0.0147,-24.00, 999.9
2185,328356.200,  45.834007520,-110.935897849, 2437.1730,  1,  8,  0.0213,  0.0176,  0.0411, -0.0105,  0.0186, -0.0146,-23.80, 999.9
2185,328356.400,  45.834004242,-110.935903866, 2437.5350,  1,  8,  0.0212,  0.0175,  0.0408, -0.0104,  0.0185, -0.0145,-23.60, 999.9
2185,328356.600,  45.834001031,-110.935909907, 2437.8961,  1,  8,  0.0210,  0.0173,  0.0405, -0.0103,  0.0183, -0.0144,-23.40, 999.9
2185,328356.800,  45.833997766,-110.935915960, 2438.2612,  1,  8,  0.0209,  0.0172,  0.0402, -0.0103,  0.0182, -0.0143,-23.20, 999.9
2185,328357.000,  45.833994554,-110.935922117, 2438.6219,  1,  8,  0.0207,  0.0171,  0.0399, -0.0102,  0.0181, -0.0142,-23.00, 999.9
2185,328357.200,  45.833991294,-110.935928261, 2438.9916,  1,  8,  0.0206,  0.0169,  0.0396, -0.0101,  0.0179, -0.0141,-22.80, 999.9
2185,328357.400,  45.833988064,-110.935934395, 2439.3581,  1,  8,  0.0204,  0.0168,  0.0393, -0.0100,  0.0178, -0.0140,-22.60, 999.9
2185,328357.600,  45.833984822,-110.935940516, 2439.7282,  1,  8,  0.0203,  0.0167,  0.0390, -0.0100,  0.0176, -0.0139,-22.40, 999.9
2185,328357.800,  45.833981583,-110.935946615, 2440.0989,  1,  8,  0.0201,  0.0165,  0.0387, -0.0099,  0.0175, -0.0138,-22.20, 999.9
2185,328358.000,  45.833978383,-110.935952745, 2440.4631,  1,  8,  0.0200,  0.0164,  0.0384, -0.0098,  0.0174, -0.0137,-22.00, 999.9
2185,328358.200,  45.833975115,-110.935958870, 2440.8347,  1,  8,  0.0198,  0.0163,  0.0381, -0.0097,  0.0172, -0.0136,-21.80, 999.9
2185,328358.400,  45.833971890,-110.935965065, 2441.1964,  1,  8,  0.0197,  0.0161,  0.0378, -0.0097,  0.0171, -0.0135,-21.60, 999.9
2185,328358.600,  45.833968626,-110.935971273, 2441.5578,  1,  8,  0.0195,  0.0160,  0.0375, -0.0096,  0.0170, -0.0134,-21.40, 999.9
2185,328358.800,  45.833965362,-110.935977483, 2441.9209,  1,  8,  0.0194,  0.0159,  0.0372, -0.0095,  0.0168, -0.0133,-21.20, 999.9
2185,328359.000,  45.833962060,-110.935983667, 2442.2870,  1,  8,  0.0192,  0.0157,  0.0369, -0.0094,  0.0167, -0.0132,-21.00, 999.9
2185,328359.200,  45.833958710,-110.935989857, 2442.6572,  1,  8,  0.0191,  0.0156,  0.0366, -0.0094,  0.0165, -0.0131,-20.80, 999.9
2185,328359.400,  45.833955352,-110.935996096, 2443.0251,  1,  8,  0.0189,  0.0155,  0.0363, -0.0093,  0.0164, -0.0130,-20.60, 999.9
2185,328359.600,  45.833951962,-110.936002281, 2443.3871,  1,  8,  0.0188,  0.0154,  0.0360, -0.0092,  0.0163, -0.0129,-20.40, 999.9
2185,328359.800,  45.833948572,-110.936008502, 2443.7535,  1,  8,  0.0186,  0.0152,  0.0357, -0.0091,  0.0161, -0.0128,-20.20, 999.9
2185,328360.000,  45.833945196,-110.936014737, 2444.1167,  1,  8,  0.0185,  0.0151,  0.0354, -0.0090,  0.0160, -0.0127,-20.00, 999.9
2185,328360.200,  45.833941791,-110.936020932, 2444.4815,  1,  8,  0.0183,  0.0150,  0.0351, -0.0090,  0.0158, -0.0126,-19.80, 999.9
2185,328360.400,  45.833938477,-110.936027158, 2444.8461,  1,  8,  0.0182,  0.0148,  0.0348, -0.0089,  0.0157, -0.0125,-19.60, 999.9
2185,328360.600,  45.833935100,-110.936033281, 2445.2160,  1,  8,  0.0180,  0.0147,  0.0345, -0.0088,  0.0156, -0.0124,-19.40, 999.9
2185,328360.800,  45.833931710,-110.936039377, 2445.5744,  1,  8,  0.0179,  0.0146,  0.0342, -0.0087,  0.0154, -0.0124,-19.20, 999.9
2185,328361.000,  45.833928315,-110.936045412, 2445.9441,  1,  8,  0.0177,  0.0144,  0.0339, -0.0087,  0.0153, -0.0123,-19.00, 999.9
2185,328361.200,  45.833924911,-110.936051488, 2446.3065,  1,  8,  0.0176,  0.0143,  0.0336, -0.0086,  0.0151, -0.0122,-18.80, 999.9
2185,328361.400,  45.833921554,-110.936057633, 2446.6709,  1,  8,  0.0174,  0.0142,  0.0333, -0.0085,  0.0150, -0.0121,-18.60, 999.9
2185,328361.600,  45.833918252,-110.936063805, 2447.0381,  1,  8,  0.0173,  0.0140,  0.0330, -0.0084,  0.0149, -0.0120,-18.40, 999.9
2185,328361.800,  45.833915007,-110.936070065, 2447.3988,  1,  8,  0.0171,  0.0139,  0.0327, -0.0084,  0.0147, -0.0119,-18.20, 999.9
2185,328362.000,  45.833911795,-110.936076285, 2447.7683,  1,  8,  0.0170,  0.0138,  0.0324, -0.0083,  0.0146, -0.0118,-18.00, 999.9
2185,328362.200,  45.833908641,-110.936082603, 2448.1228,  1,  8,  0.0168,  0.0136,  0.0321, -0.0082,  0.0145, -0.0117,-17.80, 999.9
2185,328362.400,  45.833905384,-110.936088914, 2448.4916,  1,  8,  0.0167,  0.0135,  0.0318, -0.0081,  0.0143, -0.0116,-17.60, 999.9
2185,328362.600,  45.833902092,-110.936095186, 2448.8585,  1,  8,  0.0165,  0.0134,  0.0315, -0.0080,  0.0142, -0.0115,-17.40, 999.9
2185,328362.800,  45.833898796,-110.936101248, 2449.2224,  1,  8,  0.0164,  0.0133,  0.0312, -0.0080,  0.0140, -0.0114,-17.20, 999.9
2185,328363.000,  45.833895548,-110.936107193, 2449.5859,  1,  8,  0.0162,  0.0131,  0.0309, -0.0079,  0.0139, -0.0113,-17.00, 999.9
2185,328363.200,  45.833892318,-110.936113159, 2449.9576,  1,  8,  0.0161,  0.0130,  0.0306, -0.0078,  0.0138, -0.0112,-16.80, 999.9
2185,328363.400,  45.833889068,-110.936119245, 2450.3184,  1,  8,  0.0159,  0.0129,  0.0303, -0.0077,  0.0136, -0.0111,-16.60, 999.9
2185,328363.600,  45.833885815,-110.936125538, 2450.6753,  1,  8,  0.0158,  0.0127,  0.0300, -0.0077,  0.0135, -0.0110,-16.40, 999.9
2185,328363.800,  45.833882502,-110.936131805, 2451.0379,  1,  8,  0.0156,  0.0126,  0.0297, -0.0076,  0.0133, -0.0109,-16.20, 999.9
2185,328364.000,  45.833879161,-110.936137903, 2451.3978,  1,  8,  0.0155,  0.0125,  0.0294, -0.0075,  0.0132, -0.0108,-16.00, 999.9
2185,328364.200,  45.833875826,-110.936143931, 2451.7580,  1,  8,  0.0153,  0.0123,  0.0291, -0.0075,  0.0130, -0.0108,-15.80,   3.2
2185,328364.400,  45.833872542,-110.936149767, 2452.1362,  1,  8,  0.0153,  0.0123,  0.0291, -0.0072,  0.0132, -0.0103,-15.60, 999.9
2185,328364.600,  45.833869264,-110.936155817, 2452.5110,  1,  8,  0.0152,  0.0122,  0.0289, -0.0070,  0.0131, -0.0101,-15.40, 999.9
2185,328364.800,  45.833866019,-110.936161835, 2452.8764,  1,  8,  0.0150,  0.0122,  0.0287, -0.0069,  0.0131, -0.0099,-15.20, 999.9
2185,328365.000,  45.833862792,-110.936167822, 2453.2365,  1,  8,  0.0150,  0.0122,  0.0287, -0.0066,  0.0132, -0.0095,-15.00, 999.9
2185,328365.200,  45.833859507,-110.936173826, 2453.5984,  1,  8,  0.0150,  0.0122,  0.0288, -0.0061,  0.0134, -0.0088,-14.80, 999.9
2185,328365.400,  45.833856140,-110.936179835, 2453.9671,  1,  8,  0.0150,  0.0122,  0.0285, -0.0058,  0.0134, -0.0084,-14.60, 999.9
2185,328365.600,  45.833852846,-110.936185928, 2454.3320,  1,  8,  0.0143,  0.0114,  0.0270, -0.0069,  0.0120, -0.0101,-14.40, 999.9
2185,328365.800,  45.833849536,-110.936192119, 2454.6907,  1,  8,  0.0142,  0.0113,  0.0267, -0.0069,  0.0119, -0.0100,-14.20, 999.9
2185,328366.000,  45.833846293,-110.936198374, 2455.0579,  1,  8,  0.0140,  0.0111,  0.0264, -0.0068,  0.0117, -0.0099,-14.00, 999.9
2185,328366.200,  45.833842986,-110.936204636, 2455.4299,  1,  8,  0.0139,  0.0110,  0.0261, -0.0067,  0.0116, -0.0098,-13.80, 999.9
2185,328366.400,  45.833839690,-110.936210953, 2455.7994,  1,  8,  0.0137,  0.0109,  0.0258, -0.0066,  0.0115, -0.0097,-13.60, 999.9
2185,328366.600,  45.833836355,-110.936217201, 2456.1770,  1,  8,  0.0136,  0.0108,  0.0255, -0.0066,  0.0113, -0.0096,-13.40, 999.9
2185,328366.800,  45.833833058,-110.936223496, 2456.5434,  1,  8,  0.0134,  0.0106,  0.0252, -0.0065,  0.0112, -0.0095,-13.20, 999.9
2185,328367.000,  45.833829772,-110.936229777, 2456.9091,  1,  8,  0.0133,  0.0105,  0.0249, -0.0064,  0.0110, -0.0094,-13.00, 999.9
2185,328367.200,  45.833826569,-110.936235948, 2457.2788,  1,  8,  0.0132,  0.0104,  0.0246, -0.0063,  0.0109, -0.0093,-12.80, 999.9
2185,328367.400,  45.833823412,-110.936242136, 2457.6467,  1,  8,  0.0130,  0.0102,  0.0243, -0.0062,  0.0108, -0.0093,-12.60, 999.9
2185,328367.600,  45.833820256,-110.936248315, 2458.0222,  1,  8,  0.0129,  0.0101,  0.0240, -0.0062,  0.0106, -0.0092,-12.40, 999.9
2185,328367.800,  45.833817120,-110.936254548, 2458.3965,  1,  8,  0.0127,  0.0100,  0.0237, -0.0061,  0.0105, -0.0091,-12.20, 999.9
2185,328368.000,  45.833813951,-110.936260652, 2458.7681,  1,  8,  0.0126,  0.0098,  0.0235, -0.0060,  0.0103, -0.0090,-12.00, 999.9
2185,328368.200,  45.833810748,-110.936266584, 2459.1402,  1,  8,  0.0124,  0.0097,  0.0232, -0.0059,  0.0102, -0.0089,-11.80, 999.9
2185,328368.400,  45.833807510,-110.936272453, 2459.5117,  1,  8,  0.0123,  0.0096,  0.0229, -0.0059,  0.0101, -0.0088,-11.60, 999.9
2185,328368.600,  45.833804244,-110.936278309, 2459.8798,  1,  8,  0.0122,  0.0095,  0.0226, -0.0058,  0.0099, -0.0087,-11.40, 999.9
2185,328368.800,  45.833800891,-110.936284136, 2460.2491,  1,  8,  0.0120,  0.0093,  0.0223, -0.0057,  0.0098, -0.0086,-11.20, 999.9
2185,328369.000,  45.833797499,-110.936290020, 2460.6206,  1,  8,  0.0119,  0.0092,  0.0220, -0.0056,  0.0096, -0.0085,-11.00, 999.9
2185,328369.200,  45.833794081,-110.936295988, 2460.9907,  1,  8,  0.0118,  0.0091,  0.0217, -0.0056,  0.0095, -0.0084,-10.80, 999.9
2185,328369.400,  45.833790622,-110.936301937, 2461.3536,  1,  8,  0.0116,  0.0090,  0.0214, -0.0055,  0.0094, -0.0083,-10.60, 999.9
2185,328369.600,  45.833787246,-110.936307963, 2461.7179,  1,  8,  0.0115,  0.0088,  0.0211, -0.0054,  0.0092, -0.0083,-10.40, 999.9
2185,328369.800,  45.833783985,-110.936313975, 2462.0800,  1,  8,  0.0113,  0.0087,  0.0208, -0.0053,  0.0091, -0.0082,-10.20, 999.9
2185,328370.000,  45.833780657,-110.936319987, 2462.4338,  1,  8,  0.0112,  0.0086,  0.0206, -0.0053,  0.0089, -0.0081,-10.00, 999.9
2185,328370.200,  45.833777355,-110.936326084, 2462.7927,  1,  8,  0.0111,  0.0085,  0.0203, -0.0052,  0.0088, -0.0080, -9.80, 999.9
2185,328370.400,  45.833773996,-110.936332143, 2463.1521,  1,  8,  0.0109,  0.0083,  0.0200, -0.0051,  0.0087, -0.0079, -9.60, 999.9
2185,328370.600,  45.833770632,-110.936338213, 2463.5160,  1,  8,  0.0108,  0.0082,  0.0197, -0.0051,  0.0085, -0.0078, -9.40, 999.9
2185,328370.800,  45.833767392,-110.936344250, 2463.8686,  1,  8,  0.0107,  0.0081,  0.0194, -0.0050,  0.0084, -0.0077, -9.20, 999.9
2185,328371.000,  45.833764164,-110.936350337, 2464.2258,  1,  8,  0.0105,  0.0080,  0.0191, -0.0049,  0.0082, -0.0076, -9.00, 999.9
2185,328371.200,  45.833760870,-110.936356444, 2464.5847,  1,  8,  0.0104,  0.0078,  0.0188, -0.0048,  0.0081, -0.0075, -8.80, 999.9
2185,328371.400,  45.833757643,-110.936362596, 2464.9379,  1,  8,  0.0103,  0.0077,  0.0186, -0.0048,  0.0080, -0.0075, -8.60, 999.9
2185,328371.600,  45.833754425,-110.936368773, 2465.2995,  1,  8,  0.0101,  0.0076,  0.0183, -0.0047,  0.0078, -0.0074, -8.40, 999.9
2185,328371.800,  45.833751201,-110.936375071, 2465.6654,  1,  8,  0.0100,  0.0075,  0.0180, -0.0046,  0.0077, -0.0073, -8.20, 999.9
2185,328372.000,  45.833747989,-110.936381375, 2466.0246,  1,  8,  0.0099,  0.0074,  0.0177, -0.0045,  0.0076, -0.0072, -8.00, 999.9
2185,328372.200,  45.833744820,-110.936387704, 2466.3762,  1,  8,  0.0098,  0.0072,  0.0175, -0.0045,  0.0074, -0.0071, -7.80, 999.9
2185,328372.400,  45.833741570,-110.936394051, 2466.7379,  1,  8,  0.0096,  0.0071,  0.0172, -0.0044,  0.0073, -0.0070, -7.60, 999.9
2185,328372.600,  45.833738333,-110.936400393, 2467.0976,  1,  8,  0.0095,  0.0070,  0.0169, -0.0043,  0.0071, -0.0069, -7.40, 999.9
2185,328372.800,  45.833735027,-110.936406813, 2467.4612,  1,  8,  0.0094,  0.0069,  0.0166, -0.0042,  0.0070, -0.0069, -7.20, 999.9
2185,328373.000,  45.833731711,-110.936413186, 2467.8226,  1,  8,  0.0093,  0.0068,  0.0164, -0.0042,  0.0069, -0.0068, -7.00, 999.9
2185,328373.200,  45.833728343,-110.936419517, 2468.1875,  1,  8,  0.0091,  0.0066,  0.0161, -0.0041,  0.0067, -0.0067, -6.80, 999.9
2185,328373.400,  45.833725032,-110.936425829, 2468.5562,  1,  8,  0.0090,  0.0065,  0.0159, -0.0040,  0.0066, -0.0066, -6.60, 999.9
2185,328373.600,  45.833721786,-110.936432130, 2468.9181,  1,  8,  0.0089,  0.0064,  0.0156, -0.0040,  0.0065, -0.0065, -6.40, 999.9
2185,328373.800,  45.833718487,-110.936438424, 2469.2838,  1,  8,  0.0088,  0.0063,  0.0153, -0.0039,  0.0063, -0.0064, -6.20, 999.9
2185,328374.000,  45.833715234,-110.936444683, 2469.6544,  1,  8,  0.0087,  0.0062,  0.0151, -0.0038,  0.0062, -0.0063, -6.00, 999.9
2185,328374.200,  45.833711973,-110.936450931, 2470.0186,  1,  8,  0.0086,  0.0061,  0.0148, -0.0038,  0.0061, -0.0063, -5.80, 999.9
2185,328374.400,  45.833708712,-110.936457139, 2470.3799,  1,  8,  0.0084,  0.0060,  0.0146, -0.0037,  0.0059, -0.0062, -5.60, 999.9
2185,328374.600,  45.833705504,-110.936463403, 2470.7461,  1,  8,  0.0083,  0.0059,  0.0143, -0.0036,  0.0058, -0.0061, -5.40, 999.9
2185,328374.800,  45.833702314,-110.936469669, 2471.1170,  1,  8,  0.0082,  0.0058,  0.0141, -0.0035,  0.0057, -0.0060, -5.20, 999.9
2185,328375.000,  45.833699116,-110.936475942, 2471.4884,  1,  8,  0.0081,  0.0057,  0.0138, -0.0035,  0.0056, -0.0059, -5.00, 999.9
2185,328375.200,  45.833695866,-110.936482107, 2471.8418,  1,  8,  0.0080,  0.0056,  0.0136, -0.0034,  0.0054, -0.0059, -4.80, 999.9
2185,328375.400,  45.833692702,-110.936488351, 2472.2048,  1,  8,  0.0079,  0.0055,  0.0134, -0.0033,  0.0053, -0.0058, -4.60, 999.9
2185,328375.600,  45.833689535,-110.936494585, 2472.5702,  1,  8,  0.0078,  0.0054,  0.0132, -0.0033,  0.0052, -0.0057, -4.40, 999.9
2185,328375.800,  45.833686388,-110.936500777, 2472.9418,  1,  8,  0.0077,  0.0053,  0.0129, -0.0032,  0.0051, -0.0056, -4.20, 999.9
2185,328376.000,  45.833683280,-110.936506938, 2473.3077,  1,  8,  0.0076,  0.0052,  0.0127, -0.0032,  0.0049, -0.0056, -4.00, 999.9
2185,328376.200,  45.833680147,-110.936513034, 2473.6795,  1,  8,  0.0075,  0.0051,  0.0125, -0.0031,  0.0048, -0.0055, -3.80, 999.9
2185,328376.400,  45.833677009,-110.936519087, 2474.0420,  1,  8,  0.0074,  0.0050,  0.0123, -0.0030,  0.0047, -0.0054, -3.60, 999.9
2185,328376.600,  45.833673841,-110.936525162, 2474.4161,  1,  8,  0.0073,  0.0049,  0.0121, -0.0030,  0.0046, -0.0053, -3.40, 999.9
2185,328376.800,  45.833670615,-110.936531140, 2474.7884,  1,  8,  0.0072,  0.0048,  0.0119, -0.0029,  0.0045, -0.0053, -3.20, 999.9
2185,328377.000,  45.833667425,-110.936537089, 2475.1575,  1,  8,  0.0072,  0.0048,  0.0117, -0.0029,  0.0044, -0.0052, -3.00, 999.9
2185,328377.200,  45.833664244,-110.936543030, 2475.5114,  1,  8,  0.0071,  0.0047,  0.0116, -0.0028,  0.0043, -0.0051, -2.80, 999.9
2185,328377.400,  45.833661057,-110.936548974, 2475.8819,  1,  8,  0.0070,  0.0046,  0.0114, -0.0027,  0.0042, -0.0051, -2.60, 999.9
2185,328377.600,  45.833657807,-110.936554933, 2476.2436,  1,  8,  0.0069,  0.0045,  0.0112, -0.0027,  0.0041, -0.0050, -2.40, 999.9
2185,328377.800,  45.833654500,-110.936560953, 2476.6015,  1,  8,  0.0069,  0.0045,  0.0111, -0.0026,  0.0040, -0.0050, -2.20, 999.9
2185,328378.000,  45.833651161,-110.936567048, 2476.9641,  1,  8,  0.0068,  0.0044,  0.0109, -0.0026,  0.0039, -0.0049, -2.00, 999.9
2185,328378.200,  45.833647921,-110.936573165, 2477.3204,  1,  8,  0.0068,  0.0044,  0.0108, -0.0026,  0.0039, -0.0049, -1.80, 999.9
2185,328378.400,  45.833644732,-110.936579288, 2477.6739,  1,  8,  0.0067,  0.0043,  0.0107, -0.0025,  0.0038, -0.0048, -1.60, 999.9
2185,328378.600,  45.833641464,-110.936585374, 2478.0374,  1,  8,  0.0067,  0.0043,  0.0106, -0.0025,  0.0037, -0.0048, -1.40, 999.9
2185,328378.800,  45.833638097,-110.936591438, 2478.4050,  1,  8,  0.0066,  0.0042,  0.0105, -0.0024,  0.0037, -0.0047, -1.20, 999.9
2185,328379.000,  45.833634760,-110.936597622, 2478.7658,  1,  8,  0.0066,  0.0042,  0.0104, -0.0024,  0.0036, -0.0047, -1.00, 999.9
2185,328379.200,  45.833631362,-110.936603906, 2479.1214,  1,  8,  0.0066,  0.0042,  0.0104, -0.0024,  0.0036, -0.0047, -0.80, 999.9
2185,328379.400,  45.833627932,-110.936610175, 2479.4764,  1,  8,  0.0065,  0.0042,  0.0104, -0.0024,  0.0036, -0.0047, -0.60, 999.9
